time,.header.seq,.header.stamp.secs,.header.stamp.nsecs,.header.frame_id,.coordinate_frame,.type_mask,.position.x,.position.y,.position.z,.velocity.x,.velocity.y,.velocity.z,.acceleration_or_force.x,.acceleration_or_force.y,.acceleration_or_force.z,.yaw,.yaw_rate
1970/01/01/02:01:44.788000,6,0,0,world,8,1479,0.0,0.0,0.0,0.0118950667944,0.215399684541,0.000307094404867,0.0,0.0,0.0,0.0,0.0265759471804
1970/01/01/02:01:44.816000,7,0,0,world,8,1479,0.0,0.0,0.0,0.0062913039315,0.228677760177,0.000498147402148,0.0,0.0,0.0,0.0,0.0198687072843
1970/01/01/02:01:44.847000,8,0,0,world,8,1479,0.0,0.0,0.0,0.000402738633472,0.175345504733,0.000863109278504,0.0,0.0,0.0,0.0,-0.010335878469
1970/01/01/02:01:44.877000,9,0,0,world,8,1479,0.0,0.0,0.0,0.00215884068025,0.198807725272,0.00073765044565,0.0,0.0,0.0,0.0,-0.0122461067513
1970/01/01/02:01:44.910000,10,0,0,world,8,1479,0.0,0.0,0.0,-0.00159926425249,0.25475301158,0.000724858682635,0.0,0.0,0.0,0.0,-0.00390658387914
1970/01/01/02:01:44.943000,11,0,0,world,8,1479,0.0,0.0,0.0,-0.00120388221636,0.27120845846,0.000672638880286,0.0,0.0,0.0,0.0,-0.00516232987866
1970/01/01/02:01:44.977000,12,0,0,world,8,1479,0.0,0.0,0.0,0.000490565742565,0.293781844121,0.000608810659683,0.0,0.0,0.0,0.0,-0.00227395282127
1970/01/01/02:01:45.008000,13,0,0,world,8,1479,0.0,0.0,0.0,-0.000274129889062,0.331715216681,0.000685631507546,0.0,0.0,0.0,0.0,0.00514734117314
1970/01/01/02:01:45.046000,14,0,0,world,8,1479,0.0,0.0,0.0,-0.00369368970526,0.340551400138,0.00072361877069,0.0,0.0,0.0,0.0,0.000232644131756
1970/01/01/02:01:45.078000,15,0,0,world,8,1479,0.0,0.0,0.0,-0.00175042541077,0.334689632183,0.000314049609717,0.0,0.0,0.0,0.0,-0.0101418001577
1970/01/01/02:01:45.106000,16,0,0,world,8,1479,0.0,0.0,0.0,-0.00617698932186,0.348403825015,0.000275382603713,0.0,0.0,0.0,0.0,-0.0145498719066
1970/01/01/02:01:45.140000,17,0,0,world,8,1479,0.0,0.0,0.0,-0.00803731844754,0.346145662941,0.000182490734314,0.0,0.0,0.0,0.0,-0.0215754713863
1970/01/01/02:01:45.173000,18,0,0,world,8,1479,0.0,0.0,0.0,-0.00837461932114,0.330663390189,-0.000233211822499,0.0,0.0,0.0,0.0,-0.0313135571778
1970/01/01/02:01:45.210000,19,0,0,world,8,1479,0.0,0.0,0.0,-0.00634857412346,0.335548484283,-0.000213267114622,0.0,0.0,0.0,0.0,-0.0300215948373
1970/01/01/02:01:45.246000,20,0,0,world,8,1479,0.0,0.0,0.0,-0.00161527294903,0.354238743162,-0.000203467577737,0.0,0.0,0.0,0.0,-0.0204004235566
1970/01/01/02:01:45.276000,21,0,0,world,8,1479,0.0,0.0,0.0,0.00613762477902,0.371372670805,0.00011504741226,0.0,0.0,0.0,0.0,-0.00711482018232
1970/01/01/02:01:45.308000,22,0,0,world,8,1479,0.0,0.0,0.0,0.00962239977598,0.351748620354,0.000226686486787,0.0,0.0,0.0,0.0,-0.00758823752403
1970/01/01/02:01:45.342000,23,0,0,world,8,1479,0.0,0.0,0.0,0.00499800454768,0.300849434791,0.000161934325701,0.0,0.0,0.0,0.0,-0.022810427472
1970/01/01/02:01:45.373000,24,0,0,world,8,1479,0.0,0.0,0.0,0.0113649817261,0.218893173567,-0.000478453034311,0.0,0.0,0.0,0.0,-0.0468109287322
1970/01/01/02:01:45.408000,25,0,0,world,8,1479,0.0,0.0,0.0,0.0166582375929,0.236485607043,-0.000250922486558,0.0,0.0,0.0,0.0,-0.0315222665668
1970/01/01/02:01:45.443000,26,0,0,world,8,1479,0.0,0.0,0.0,0.0205533134403,0.222151213647,-9.12786922126e-05,0.0,0.0,0.0,0.0,-0.0219365302473
1970/01/01/02:01:45.470000,27,0,0,world,8,1479,0.0,0.0,0.0,0.0184010983243,0.147395269374,3.56417028632e-05,0.0,0.0,0.0,0.0,-0.0308405999094
1970/01/01/02:01:45.507000,28,0,0,world,8,1479,0.0,0.0,0.0,0.0240254521596,0.155352608463,0.000180233887393,0.0,0.0,0.0,0.0,-0.00725316116586
1970/01/01/02:01:45.534000,29,0,0,world,8,1479,0.0,0.0,0.0,0.0321825657219,0.0858524411017,6.46811654195e-05,0.0,0.0,0.0,0.0,-0.0092286625877
1970/01/01/02:01:45.573000,30,0,0,world,8,1479,0.0,0.0,0.0,0.0251454589258,0.0887944896924,-1.69628723107e-05,0.0,0.0,0.0,0.0,0.0133141558617
1970/01/01/02:01:45.610000,31,0,0,world,8,1479,0.0,0.0,0.0,0.0301251534709,0.011924442973,-0.000183982415864,0.0,0.0,0.0,0.0,0.00905821286142
1970/01/01/02:01:45.647000,32,0,0,world,8,1479,0.0,0.0,0.0,0.0270750736121,-0.0223400548108,-0.000697402728611,0.0,0.0,0.0,0.0,0.0173648074269
1970/01/01/02:01:45.674000,33,0,0,world,8,1479,0.0,0.0,0.0,0.028618464982,-0.105106555374,-0.000850589864356,0.0,0.0,0.0,0.0,0.00713515467942
1970/01/01/02:01:45.704000,34,0,0,world,8,1479,0.0,0.0,0.0,0.0218245645441,-0.0653569762872,-0.00165612030154,0.0,0.0,0.0,0.0,0.0387795977294
1970/01/01/02:01:45.738000,35,0,0,world,8,1479,0.0,0.0,0.0,0.020366855312,-0.0314502905315,-0.00204563535694,0.0,0.0,0.0,0.0,0.0765054002404
1970/01/01/02:01:45.770000,36,0,0,world,8,1479,0.0,0.0,0.0,0.0581881793043,-0.185265934084,-0.00290750318522,0.0,0.0,0.0,0.0,0.0442837439477
1970/01/01/02:01:45.813000,37,0,0,world,8,1479,0.0,0.0,0.0,0.0555657385627,-0.185918739352,-0.00331114493152,0.0,0.0,0.0,0.0,0.0588080398738
1970/01/01/02:01:45.843000,38,0,0,world,8,1479,0.0,0.0,0.0,0.0381399469851,-0.165480463724,-0.00356667709996,0.0,0.0,0.0,0.0,0.0723980218172
1970/01/01/02:01:45.877000,39,0,0,world,8,1479,0.0,0.0,0.0,0.0608112281235,-0.198301394815,-0.00418547122723,0.0,0.0,0.0,0.0,0.0709967687726
1970/01/01/02:01:45.909000,40,0,0,world,8,1479,0.0,0.0,0.0,0.0767449499142,-0.243081044121,-0.00433343964265,0.0,0.0,0.0,0.0,0.0694661363959
1970/01/01/02:01:45.944000,41,0,0,world,8,1479,0.0,0.0,0.0,0.0885399671254,-0.267514139915,-0.0045635564548,0.0,0.0,0.0,0.0,0.0707676410675
1970/01/01/02:01:45.975000,42,0,0,world,8,1479,0.0,0.0,0.0,0.0811506769956,-0.330522251589,-0.00505051259901,0.0,0.0,0.0,0.0,0.0537360906601
1970/01/01/02:01:46.011000,43,0,0,world,8,1479,0.0,0.0,0.0,0.0867335458248,-0.297567844849,-0.00443767237132,0.0,0.0,0.0,0.0,0.074711561203
1970/01/01/02:01:46.036000,44,0,0,world,8,1479,0.0,0.0,0.0,0.0861377000513,-0.390980467504,-0.00404776713313,0.0,0.0,0.0,0.0,0.0481061935425
1970/01/01/02:01:46.077000,45,0,0,world,8,1479,0.0,0.0,0.0,0.0835005380919,-0.371406858784,-0.00399685207884,0.0,0.0,0.0,0.0,0.0620186589658
1970/01/01/02:01:46.109000,46,0,0,world,8,1479,0.0,0.0,0.0,0.0749476326687,-0.402950878276,-0.00366509370294,0.0,0.0,0.0,0.0,0.0545388460159
1970/01/01/02:01:46.143000,47,0,0,world,8,1479,0.0,0.0,0.0,0.0650806217973,-0.217311091468,-0.00280381488341,0.0,0.0,0.0,0.0,0.127013012767
1970/01/01/02:01:46.172000,48,0,0,world,8,1479,0.0,0.0,0.0,0.0573829380819,-0.287551637154,-0.00171115531524,0.0,0.0,0.0,0.0,0.104148820043
1970/01/01/02:01:46.210000,49,0,0,world,8,1479,0.0,0.0,0.0,0.0396642941602,-0.234384516215,-0.00171358367262,0.0,0.0,0.0,0.0,0.125183880329
1970/01/01/02:01:46.243000,50,0,0,world,8,1479,0.0,0.0,0.0,0.0383152107106,-0.302769724346,-0.00289445425968,0.0,0.0,0.0,0.0,0.0938132628798
1970/01/01/02:01:46.275000,51,0,0,world,8,1479,0.0,0.0,0.0,0.0469715401212,-0.241169267954,-0.00368797875644,0.0,0.0,0.0,0.0,0.102158911526
1970/01/01/02:01:46.307000,52,0,0,world,8,1479,0.0,0.0,0.0,0.0388116994524,-0.173044814959,-0.00333667084875,0.0,0.0,0.0,0.0,0.104130908847
1970/01/01/02:01:46.337000,53,0,0,world,8,1479,0.0,0.0,0.0,0.0381182136167,-0.123593793423,-0.00380467615398,0.0,0.0,0.0,0.0,0.0991943627596
1970/01/01/02:01:46.377000,54,0,0,world,8,1479,0.0,0.0,0.0,0.028973959367,-0.0905545637694,-0.0043355471825,0.0,0.0,0.0,0.0,0.0851565375924
1970/01/01/02:01:46.408000,55,0,0,world,8,1479,0.0,0.0,0.0,0.0105729327703,0.0491914083496,-0.00381621779839,0.0,0.0,0.0,0.0,0.109998978674
1970/01/01/02:01:46.446000,56,0,0,world,8,1479,0.0,0.0,0.0,0.0197496607197,0.0121304577503,-0.00270497474323,0.0,0.0,0.0,0.0,0.0633733794093
1970/01/01/02:01:46.477000,57,0,0,world,8,1479,0.0,0.0,0.0,0.0115382718933,0.0826210109649,-0.00185227514579,0.0,0.0,0.0,0.0,0.0579286925495
1970/01/01/02:01:46.510000,58,0,0,world,8,1479,0.0,0.0,0.0,0.0139644018376,0.160312518278,-0.000753339231484,0.0,0.0,0.0,0.0,0.0553595162928
1970/01/01/02:01:46.542000,59,0,0,world,8,1479,0.0,0.0,0.0,0.0145280629785,0.156283752739,1.89899926292e-05,0.0,0.0,0.0,0.0,0.0206548329443
1970/01/01/02:01:46.578000,60,0,0,world,8,1479,0.0,0.0,0.0,0.000721528519278,0.220110534813,0.00114939662463,0.0,0.0,0.0,0.0,0.00830665882677
1970/01/01/02:01:46.611000,61,0,0,world,8,1479,0.0,0.0,0.0,-0.00613325823738,0.276374726205,0.00138651337499,0.0,0.0,0.0,0.0,-0.00138543406501
1970/01/01/02:01:46.651000,62,0,0,world,8,1479,0.0,0.0,0.0,-0.00403333940776,0.320048313303,0.00156367237619,0.0,0.0,0.0,0.0,-0.0168883856386
1970/01/01/02:01:46.679000,63,0,0,world,8,1479,0.0,0.0,0.0,-0.0123594714364,0.332072914948,0.00199256595124,0.0,0.0,0.0,0.0,-0.0351893007755
1970/01/01/02:01:46.712000,64,0,0,world,8,1479,0.0,0.0,0.0,-0.0165224681308,0.296505667608,0.00227659262542,0.0,0.0,0.0,0.0,-0.0734018683434
1970/01/01/02:01:46.743000,65,0,0,world,8,1479,0.0,0.0,0.0,-0.00165481280797,0.400965304806,0.00217878660826,0.0,0.0,0.0,0.0,-0.0571306757629
1970/01/01/02:01:46.774000,66,0,0,world,8,1479,0.0,0.0,0.0,-0.00749715402255,0.354085624584,0.00284243194492,0.0,0.0,0.0,0.0,-0.0928725451231
1970/01/01/02:01:46.812000,67,0,0,world,8,1479,0.0,0.0,0.0,-0.00565559426813,0.386398339447,0.00296805859908,0.0,0.0,0.0,0.0,-0.0913414731622
1970/01/01/02:01:46.847000,68,0,0,world,8,1479,0.0,0.0,0.0,-0.00154001499161,0.423045698151,0.00262960111745,0.0,0.0,0.0,0.0,-0.0832361280918
1970/01/01/02:01:46.875000,69,0,0,world,8,1479,0.0,0.0,0.0,3.99610789352,3.21212078189,0.003627210599,0.0,0.0,0.0,0.0,1.25180959702
1970/01/01/02:01:46.907000,70,0,0,world,8,1479,0.0,0.0,0.0,0.0491237991186,0.763045626931,0.00665115685457,0.0,0.0,0.0,0.0,0.0388669893146
1970/01/01/02:01:46.941000,71,0,0,world,8,1479,0.0,0.0,0.0,0.0477776924824,0.759709940934,0.00641934334027,0.0,0.0,0.0,0.0,0.037096221
1970/01/01/02:01:46.978000,72,0,0,world,8,1479,0.0,0.0,0.0,0.0449015244178,0.75378646444,0.00581037785198,0.0,0.0,0.0,0.0,0.0334405228496
1970/01/01/02:01:47.006000,73,0,0,world,8,1479,0.0,0.0,0.0,0.0371254972778,0.739738679531,0.00480333638013,0.0,0.0,0.0,0.0,0.0230626109987
1970/01/01/02:01:47.037000,74,0,0,world,8,1479,0.0,0.0,0.0,-0.000453095659387,0.525165820652,0.00727495708721,0.0,0.0,0.0,0.0,-0.0633568018675
1970/01/01/02:01:47.073000,75,0,0,world,8,1479,0.0,0.0,0.0,-0.0138251466546,0.491086445926,0.00797319567351,0.0,0.0,0.0,0.0,-0.0956534966826
1970/01/01/02:01:47.111000,76,0,0,world,8,1479,0.0,0.0,0.0,0.061227562736,0.811549015958,0.00328913324049,0.0,0.0,0.0,0.0,-0.005094491411
1970/01/01/02:01:47.141000,77,0,0,world,8,1479,0.0,0.0,0.0,0.0293043540922,0.716515413479,0.010849203589,0.0,0.0,0.0,0.0,-0.0413085892797
1970/01/01/02:01:47.174000,78,0,0,world,8,1479,0.0,0.0,0.0,0.0192239199425,0.654909084771,0.013795714904,0.0,0.0,0.0,0.0,-0.0640374049544
1970/01/01/02:01:47.211000,79,0,0,world,8,1479,0.0,0.0,0.0,0.0244131943224,0.644084416349,0.0114512061388,0.0,0.0,0.0,0.0,-0.0550017245114
1970/01/01/02:01:47.246000,80,0,0,world,8,1479,0.0,0.0,0.0,0.0326000999009,0.793315087506,0.00860650742264,0.0,0.0,0.0,0.0,0.00862227659672
1970/01/01/02:01:47.273000,81,0,0,world,8,1479,0.0,0.0,0.0,-0.0105483639339,0.525542725437,0.00762598470422,0.0,0.0,0.0,0.0,-0.0802127718925
1970/01/01/02:01:47.309000,82,0,0,world,8,1479,0.0,0.0,0.0,-0.0134938761542,0.48678864135,0.00995786502457,0.0,0.0,0.0,0.0,-0.0803127214313
1970/01/01/02:01:47.338000,83,0,0,world,8,1479,0.0,0.0,0.0,-0.0115090611859,0.48692317571,0.0100509633838,0.0,0.0,0.0,0.0,-0.0649456009269
1970/01/01/02:01:47.377000,84,0,0,world,8,1479,0.0,0.0,0.0,-0.00533217064737,0.534792841618,0.00977347730199,0.0,0.0,0.0,0.0,-0.0295207668096
1970/01/01/02:01:47.410000,85,0,0,world,8,1479,0.0,0.0,0.0,-0.0124218672233,0.388569754277,0.0071973570113,0.0,0.0,0.0,0.0,-0.0675413012505
1970/01/01/02:01:47.449000,86,0,0,world,8,1479,0.0,0.0,0.0,-0.00187773731833,0.438668525653,0.00603629092311,0.0,0.0,0.0,0.0,0.0109484810382
1970/01/01/02:01:47.475000,87,0,0,world,8,1479,0.0,0.0,0.0,-0.00165612004399,0.454746120763,0.00592920851425,0.0,0.0,0.0,0.0,0.0160727053881
1970/01/01/02:01:47.512000,88,0,0,world,8,1479,0.0,0.0,0.0,-0.00932935577454,0.402223674498,0.00428661478995,0.0,0.0,0.0,0.0,0.0207765884697
1970/01/01/02:01:47.540000,89,0,0,world,8,1479,0.0,0.0,0.0,-0.00501173727585,0.456559544445,0.00267059840977,0.0,0.0,0.0,0.0,0.0649168789387
1970/01/01/02:01:47.570000,90,0,0,world,8,1479,0.0,0.0,0.0,-0.00897212148748,0.319387727463,0.00228580574267,0.0,0.0,0.0,0.0,0.0346207991242
1970/01/01/02:01:47.605000,91,0,0,world,8,1479,0.0,0.0,0.0,-0.0123796520513,0.343020858798,0.00145000278916,0.0,0.0,0.0,0.0,0.0609104037285
1970/01/01/02:01:47.648000,92,0,0,world,8,1479,0.0,0.0,0.0,-0.0112494709216,0.342481904086,0.000437151551995,0.0,0.0,0.0,0.0,0.0837262645364
1970/01/01/02:01:47.679000,93,0,0,world,8,1479,0.0,0.0,0.0,-0.0138324281145,0.335434795465,0.000375682202119,0.0,0.0,0.0,0.0,0.0812723562121
1970/01/01/02:01:47.706000,94,0,0,world,8,1479,0.0,0.0,0.0,-0.0247494962182,0.317104122053,-0.000520656194586,0.0,0.0,0.0,0.0,0.0894573405385
1970/01/01/02:01:47.741000,95,0,0,world,8,1479,0.0,0.0,0.0,-0.0106195484158,0.282997915014,-0.000426811002786,0.0,0.0,0.0,0.0,0.0860518291593
1970/01/01/02:01:47.777000,96,0,0,world,8,1479,0.0,0.0,0.0,-0.00944895743659,0.253552327774,-0.00174247758617,0.0,0.0,0.0,0.0,0.0958801954985
1970/01/01/02:01:47.809000,97,0,0,world,8,1479,0.0,0.0,0.0,-0.0308234197396,0.249206645382,-0.00150004686326,0.0,0.0,0.0,0.0,0.0983356609941
1970/01/01/02:01:47.847000,98,0,0,world,8,1479,0.0,0.0,0.0,-0.00102634457943,0.128182583065,-0.00191394301494,0.0,0.0,0.0,0.0,0.0734416618943
1970/01/01/02:01:47.878000,99,0,0,world,8,1479,0.0,0.0,0.0,-0.00169098649902,0.11533957782,-0.00219598668864,0.0,0.0,0.0,0.0,0.0774773657322
1970/01/01/02:01:47.911000,100,0,0,world,8,1479,0.0,0.0,0.0,4.52547985701,-16.2842785111,-0.00612464653396,0.0,0.0,0.0,0.0,-6.01374387741
1970/01/01/02:01:47.942000,101,0,0,world,8,1479,0.0,0.0,0.0,0.0199256958395,0.0584716040272,-0.00236819136895,0.0,0.0,0.0,0.0,0.0686351135373
1970/01/01/02:01:47.975000,102,0,0,world,8,1479,0.0,0.0,0.0,4.96905866281,-19.9425917447,-0.00661065568627,0.0,0.0,0.0,0.0,-7.2947268486
1970/01/01/02:01:48.005000,103,0,0,world,8,1479,0.0,0.0,0.0,-0.017506483341,-0.00820439911463,-0.00331317183513,0.0,0.0,0.0,0.0,0.0840417519212
1970/01/01/02:01:48.041000,104,0,0,world,8,1479,0.0,0.0,0.0,-0.0152238754486,-0.119687809043,-0.00329506211048,0.0,0.0,0.0,0.0,0.079305537045
1970/01/01/02:01:48.076000,105,0,0,world,8,1479,0.0,0.0,0.0,6.76093145754,-22.7731292552,-0.00628990067245,0.0,0.0,0.0,0.0,-8.29968738556
1970/01/01/02:01:48.109000,106,0,0,world,8,1479,0.0,0.0,0.0,0.0188645698957,-0.271490429487,-0.00186067946286,0.0,0.0,0.0,0.0,0.0631487220526
1970/01/01/02:01:48.141000,107,0,0,world,8,1479,0.0,0.0,0.0,0.0603364557674,-0.265215890632,-0.00253937335917,0.0,0.0,0.0,0.0,0.0849879533052
1970/01/01/02:01:48.178000,108,0,0,world,8,1479,0.0,0.0,0.0,0.0260850991017,-0.205749747847,-0.000546944402846,0.0,0.0,0.0,0.0,0.120848238468
1970/01/01/02:01:48.209000,109,0,0,world,8,1479,0.0,0.0,0.0,0.0862205152019,-0.375197662997,-0.000535455831148,0.0,0.0,0.0,0.0,0.0889714211226
1970/01/01/02:01:48.240000,110,0,0,world,8,1479,0.0,0.0,0.0,0.0603199052763,-0.311547427081,0.00207171656209,0.0,0.0,0.0,0.0,0.12157484144
1970/01/01/02:01:48.274000,111,0,0,world,8,1479,0.0,0.0,0.0,0.0866797413872,-0.457555343132,0.00246725120016,0.0,0.0,0.0,0.0,0.0838442966342
1970/01/01/02:01:48.308000,112,0,0,world,8,1479,0.0,0.0,0.0,0.0986177203701,-0.514523778194,0.00211848432808,0.0,0.0,0.0,0.0,0.0807680040598
1970/01/01/02:01:48.343000,113,0,0,world,8,1479,0.0,0.0,0.0,0.0881292570572,-0.440968906812,0.00353809655681,0.0,0.0,0.0,0.0,0.113920599222
1970/01/01/02:01:48.379000,114,0,0,world,8,1479,0.0,0.0,0.0,0.149636898712,-0.536693961761,0.00478322141804,0.0,0.0,0.0,0.0,0.0910621806979
1970/01/01/02:01:48.407000,115,0,0,world,8,1479,0.0,0.0,0.0,0.178275891335,-0.413605684488,0.00776980033332,0.0,0.0,0.0,0.0,0.140502139926
1970/01/01/02:01:48.440000,116,0,0,world,8,1479,0.0,0.0,0.0,0.174712547086,-0.347333846982,0.0100212577596,0.0,0.0,0.0,0.0,0.167769521475
1970/01/01/02:01:48.474000,117,0,0,world,8,1479,0.0,0.0,0.0,0.205456807293,-0.541261298935,0.0109001044981,0.0,0.0,0.0,0.0,0.118025392294
1970/01/01/02:01:48.505000,118,0,0,world,8,1479,0.0,0.0,0.0,0.216951390137,-0.55576133767,0.0118198725502,0.0,0.0,0.0,0.0,0.112883798778
1970/01/01/02:01:48.535000,119,0,0,world,8,1479,0.0,0.0,0.0,0.288924937982,-0.652796404161,0.0113762603664,0.0,0.0,0.0,0.0,0.0812789276242
1970/01/01/02:01:48.578000,120,0,0,world,8,1479,0.0,0.0,0.0,0.301192306731,-0.768576202885,0.0102589947429,0.0,0.0,0.0,0.0,0.041596531868
1970/01/01/02:01:48.608000,121,0,0,world,8,1479,0.0,0.0,0.0,0.228699927273,-0.59805652142,0.0108363588201,0.0,0.0,0.0,0.0,0.0945963338017
1970/01/01/02:01:48.650000,122,0,0,world,8,1479,0.0,0.0,0.0,0.272496645206,-0.650610673009,0.0112511266766,0.0,0.0,0.0,0.0,0.0909001082182
1970/01/01/02:01:48.682000,123,0,0,world,8,1479,0.0,0.0,0.0,0.273852404683,-0.66940225982,0.0130768330921,0.0,0.0,0.0,0.0,0.0886166319251
1970/01/01/02:01:48.707000,124,0,0,world,8,1479,0.0,0.0,0.0,0.309963479616,-0.536608941681,0.0158297029835,0.0,0.0,0.0,0.0,0.133936524391
1970/01/01/02:01:48.744000,125,0,0,world,8,1479,0.0,0.0,0.0,0.259974671365,-0.639702349459,0.0160031779668,0.0,0.0,0.0,0.0,0.101937375963
1970/01/01/02:01:48.773000,126,0,0,world,8,1479,0.0,0.0,0.0,0.27138117516,-0.67835361333,0.016088774856,0.0,0.0,0.0,0.0,0.0879836082458
1970/01/01/02:01:48.809000,127,0,0,world,8,1479,0.0,0.0,0.0,0.326643056369,-0.699120698878,0.0153961962911,0.0,0.0,0.0,0.0,0.0843084156513
1970/01/01/02:01:48.840000,128,0,0,world,8,1479,0.0,0.0,0.0,0.27400110161,-0.680019787497,0.0133208401154,0.0,0.0,0.0,0.0,0.0877272933722
1970/01/01/02:01:48.875000,129,0,0,world,8,1479,0.0,0.0,0.0,0.303897181769,-0.610348768237,0.0111806939252,0.0,0.0,0.0,0.0,0.113573893905
1970/01/01/02:01:48.909000,130,0,0,world,8,1479,0.0,0.0,0.0,0.262691973246,-0.638312976404,0.00990688606571,0.0,0.0,0.0,0.0,0.100342780352
1970/01/01/02:01:48.940000,131,0,0,world,8,1479,0.0,0.0,0.0,0.299459402501,-0.557850754619,0.0088440327155,0.0,0.0,0.0,0.0,0.124752789736
1970/01/01/02:01:48.979000,132,0,0,world,8,1479,0.0,0.0,0.0,0.336087557017,-0.49777992388,0.00573436706633,0.0,0.0,0.0,0.0,0.137812003493
1970/01/01/02:01:49.013000,133,0,0,world,8,1479,0.0,0.0,0.0,0.276371243117,-0.541436109748,0.00465898205334,0.0,0.0,0.0,0.0,0.0912434831262
1970/01/01/02:01:49.042000,134,0,0,world,8,1479,0.0,0.0,0.0,0.313356743518,-0.439430544561,0.00296523240223,0.0,0.0,0.0,0.0,0.108780652285
1970/01/01/02:01:49.075000,135,0,0,world,8,1479,0.0,0.0,0.0,0.340690418137,-0.481430367987,0.00224316655698,0.0,0.0,0.0,0.0,0.0640998408198
1970/01/01/02:01:49.101000,136,0,0,world,8,1479,0.0,0.0,0.0,0.338541306159,-0.457744719471,0.00241111141336,0.0,0.0,0.0,0.0,0.0444256514311
1970/01/01/02:01:49.140000,137,0,0,world,8,1479,0.0,0.0,0.0,0.337687689141,-0.371786278918,0.00177114986431,0.0,0.0,0.0,0.0,0.0457198657095
1970/01/01/02:01:49.176000,138,0,0,world,8,1479,0.0,0.0,0.0,0.328733054571,-0.346384647272,0.00235604270706,0.0,0.0,0.0,0.0,0.0286746565253
1970/01/01/02:01:49.215000,139,0,0,world,8,1479,0.0,0.0,0.0,0.324080321538,-0.355006934995,0.00285763668555,0.0,0.0,0.0,0.0,-0.00774116441607
1970/01/01/02:01:49.242000,140,0,0,world,8,1479,0.0,0.0,0.0,0.280854777868,-0.328245204036,0.00330972691748,0.0,0.0,0.0,0.0,-0.0278540421277
1970/01/01/02:01:49.273000,141,0,0,world,8,1479,0.0,0.0,0.0,0.263406324814,-0.293892213841,0.00372454820656,0.0,0.0,0.0,0.0,-0.0397991389036
1970/01/01/02:01:49.313000,142,0,0,world,8,1479,0.0,0.0,0.0,0.2616681046,-0.27390282444,0.00258661750064,0.0,0.0,0.0,0.0,-0.0611451305449
1970/01/01/02:01:49.340000,143,0,0,world,8,1479,0.0,0.0,0.0,0.243093715681,-0.272286912387,0.0016457209055,0.0,0.0,0.0,0.0,-0.080780364573
1970/01/01/02:01:49.373000,144,0,0,world,8,1479,0.0,0.0,0.0,0.236856273592,-0.198618057085,-1.97027975201e-05,0.0,0.0,0.0,0.0,-0.0691672712564
1970/01/01/02:01:49.408000,145,0,0,world,8,1479,0.0,0.0,0.0,0.196278081754,-0.197392000437,-0.00151921569227,0.0,0.0,0.0,0.0,-0.100946314633
1970/01/01/02:01:49.443000,146,0,0,world,8,1479,0.0,0.0,0.0,0.187188714256,-0.206184131338,-0.00404542798971,0.0,0.0,0.0,0.0,-0.11643601954
1970/01/01/02:01:49.474000,147,0,0,world,8,1479,0.0,0.0,0.0,0.164941251545,-0.0191137731626,-0.00314294682329,0.0,0.0,0.0,0.0,-0.0734617337584
1970/01/01/02:01:49.511000,148,0,0,world,8,1479,0.0,0.0,0.0,0.13368475502,-0.102870214017,-0.00549545813853,0.0,0.0,0.0,0.0,-0.12094026804
1970/01/01/02:01:49.547000,149,0,0,world,8,1479,0.0,0.0,0.0,0.0958621866985,-0.136244561209,-0.00738094309184,0.0,0.0,0.0,0.0,-0.151653885841
1970/01/01/02:01:49.584000,150,0,0,world,8,1479,0.0,0.0,0.0,0.0973123515305,0.0347172287009,-0.00695384825192,0.0,0.0,0.0,0.0,-0.105036869645
1970/01/01/02:01:49.613000,151,0,0,world,8,1479,0.0,0.0,0.0,0.0813798106363,0.0570382173146,-0.00880362913892,0.0,0.0,0.0,0.0,-0.116328045726
1970/01/01/02:01:49.651000,152,0,0,world,8,1479,0.0,0.0,0.0,0.0691604860601,0.231418296159,-0.00696753647857,0.0,0.0,0.0,0.0,-0.0713551416993
1970/01/01/02:01:49.677000,153,0,0,world,8,1479,0.0,0.0,0.0,0.0639004650701,0.248959747386,-0.00732814335966,0.0,0.0,0.0,0.0,-0.0789173617959
1970/01/01/02:01:49.710000,154,0,0,world,8,1479,0.0,0.0,0.0,0.0513939290581,0.274054813883,-0.00682736138146,0.0,0.0,0.0,0.0,-0.085211224854
1970/01/01/02:01:49.741000,155,0,0,world,8,1479,0.0,0.0,0.0,0.0442813948298,0.206917109032,-0.010266420541,0.0,0.0,0.0,0.0,-0.131637662649
1970/01/01/02:01:49.772000,156,0,0,world,8,1479,0.0,0.0,0.0,0.0236719638477,0.368664614321,-0.0102449729274,0.0,0.0,0.0,0.0,-0.105849839747
1970/01/01/02:01:49.810000,157,0,0,world,8,1479,0.0,0.0,0.0,-0.0141881279444,0.386883917926,-0.0124961685184,0.0,0.0,0.0,0.0,-0.130979597569
1970/01/01/02:01:49.843000,158,0,0,world,8,1479,0.0,0.0,0.0,-0.0335295658271,0.450028151622,-0.0168525127874,0.0,0.0,0.0,0.0,-0.139479413629
1970/01/01/02:01:49.878000,159,0,0,world,8,1479,0.0,0.0,0.0,-0.0423856127308,0.475256476434,-0.0218727957844,0.0,0.0,0.0,0.0,-0.157375916839
1970/01/01/02:01:49.908000,160,0,0,world,8,1479,0.0,0.0,0.0,-0.0790835346616,0.390213105468,-0.0234091349975,0.0,0.0,0.0,0.0,-0.213008001447
1970/01/01/02:01:49.943000,161,0,0,world,8,1479,0.0,0.0,0.0,-0.0909553225125,0.414648792628,-0.0259430882315,0.0,0.0,0.0,0.0,-0.226660862565
1970/01/01/02:01:49.976000,162,0,0,world,8,1479,0.0,0.0,0.0,-0.0907562219327,0.463610875002,-0.0300839228119,0.0,0.0,0.0,0.0,-0.23183183372
1970/01/01/02:01:50.008000,163,0,0,world,8,1479,0.0,0.0,0.0,-0.0692611622762,0.606197642264,-0.024177665192,0.0,0.0,0.0,0.0,-0.200202509761
1970/01/01/02:01:50.040000,164,0,0,world,8,1479,0.0,0.0,0.0,-0.0405613106917,0.636972285209,-0.0232172113611,0.0,0.0,0.0,0.0,-0.192182570696
1970/01/01/02:01:50.074000,165,0,0,world,8,1479,0.0,0.0,0.0,0.00913487432454,0.760846152169,-0.0132205639497,0.0,0.0,0.0,0.0,-0.143233686686
1970/01/01/02:01:50.101000,166,0,0,world,8,1479,0.0,0.0,0.0,-0.00771569766188,0.643249358946,-0.008084879883,0.0,0.0,0.0,0.0,-0.186567544937
1970/01/01/02:01:50.137000,167,0,0,world,8,1479,0.0,0.0,0.0,0.0260600884661,0.728826113085,-0.00871938115764,0.0,0.0,0.0,0.0,-0.154613420367
1970/01/01/02:01:50.176000,168,0,0,world,8,1479,0.0,0.0,0.0,0.00158414801684,0.667284785841,-0.00901791469326,0.0,0.0,0.0,0.0,-0.189415618777
1970/01/01/02:01:50.204000,169,0,0,world,8,1479,0.0,0.0,0.0,0.00469355982626,0.642494997189,-0.0104077002173,0.0,0.0,0.0,0.0,-0.202979832888
1970/01/01/02:01:50.239000,170,0,0,world,8,1479,0.0,0.0,0.0,0.0163074644688,0.648948688338,-0.0148773970233,0.0,0.0,0.0,0.0,-0.204554647207
1970/01/01/02:01:50.277000,171,0,0,world,8,1479,0.0,0.0,0.0,0.0423846481303,0.699635961049,-0.0188735664988,0.0,0.0,0.0,0.0,-0.184638589621
1970/01/01/02:01:50.310000,172,0,0,world,8,1479,0.0,0.0,0.0,0.0614048229902,0.684523056565,-0.0232176323086,0.0,0.0,0.0,0.0,-0.175632700324
1970/01/01/02:01:50.344000,173,0,0,world,8,1479,0.0,0.0,0.0,0.0846068084876,0.76813019443,-0.019122722236,0.0,0.0,0.0,0.0,-0.133401423693
1970/01/01/02:01:50.377000,174,0,0,world,8,1479,0.0,0.0,0.0,0.0887466022854,0.732971335401,-0.0178428630989,0.0,0.0,0.0,0.0,-0.11938649416
1970/01/01/02:01:50.406000,175,0,0,world,8,1479,0.0,0.0,0.0,0.0884974767525,0.734554953728,-0.0159692580033,0.0,0.0,0.0,0.0,-0.10185893625
1970/01/01/02:01:50.441000,176,0,0,world,8,1479,0.0,0.0,0.0,0.0832598648146,0.787436594164,-0.0117024632347,0.0,0.0,0.0,0.0,-0.065744780004
1970/01/01/02:01:50.477000,177,0,0,world,8,1479,0.0,0.0,0.0,0.0890447364486,0.73087895662,-0.0156210103679,0.0,0.0,0.0,0.0,-0.0745584219694
1970/01/01/02:01:50.509000,178,0,0,world,8,1479,0.0,0.0,0.0,0.0569193411525,0.616943252531,-0.0174574426115,0.0,0.0,0.0,0.0,-0.10281085968
1970/01/01/02:01:50.540000,179,0,0,world,8,1479,0.0,0.0,0.0,0.0540192306865,0.654992448953,-0.0165842541629,0.0,0.0,0.0,0.0,-0.0804513171315
1970/01/01/02:01:50.575000,180,0,0,world,8,1479,0.0,0.0,0.0,0.0533577148764,0.662576480516,-0.0168047615214,0.0,0.0,0.0,0.0,-0.0652401745319
1970/01/01/02:01:50.610000,181,0,0,world,8,1479,0.0,0.0,0.0,0.0432689112018,0.668053646877,-0.0121128162124,0.0,0.0,0.0,0.0,-0.0432844050229
1970/01/01/02:01:50.647000,182,0,0,world,8,1479,0.0,0.0,0.0,0.025233732707,0.584315358527,-0.0086819408306,0.0,0.0,0.0,0.0,-0.0487599074841
1970/01/01/02:01:50.677000,183,0,0,world,8,1479,0.0,0.0,0.0,0.0438202263098,0.541232192853,-0.00746115339852,0.0,0.0,0.0,0.0,-0.0329487659037
1970/01/01/02:01:50.709000,184,0,0,world,8,1479,0.0,0.0,0.0,0.0289019726506,0.503137704273,-0.00426206837566,0.0,0.0,0.0,0.0,-0.0287230946124
1970/01/01/02:01:50.742000,185,0,0,world,8,1479,0.0,0.0,0.0,0.0280571844076,0.476574987747,-0.00202128181521,0.0,0.0,0.0,0.0,-0.0142053030431
1970/01/01/02:01:50.781000,186,0,0,world,8,1479,0.0,0.0,0.0,0.0337112382468,0.426678562775,-0.000385625133539,0.0,0.0,0.0,0.0,-0.0048250304535
1970/01/01/02:01:50.807000,187,0,0,world,8,1479,0.0,0.0,0.0,0.0283331949411,0.354042308043,0.00114273121293,0.0,0.0,0.0,0.0,-0.000590207055211
1970/01/01/02:01:50.839000,188,0,0,world,8,1479,0.0,0.0,0.0,0.0255536528319,0.277176336103,0.0017445320463,0.0,0.0,0.0,0.0,0.00222511286847
1970/01/01/02:01:50.873000,189,0,0,world,8,1479,0.0,0.0,0.0,0.0333738234721,0.210438411462,0.0013696727137,0.0,0.0,0.0,0.0,0.0112778041512
1970/01/01/02:01:50.910000,190,0,0,world,8,1479,0.0,0.0,0.0,0.0438378536649,0.137464530868,0.000375688934833,0.0,0.0,0.0,0.0,0.0227283649147
1970/01/01/02:01:50.942000,191,0,0,world,8,1479,0.0,0.0,0.0,0.0441949240456,0.0399598671111,-0.000943674317467,0.0,0.0,0.0,0.0,0.0198879297823
1970/01/01/02:01:50.977000,192,0,0,world,8,1479,0.0,0.0,0.0,0.0370518460925,-0.0470106641216,-0.00234653221067,0.0,0.0,0.0,0.0,0.0253088697791
1970/01/01/02:01:51.005000,193,0,0,world,8,1479,0.0,0.0,0.0,5.11027657956,-27.0042557967,-0.0064371774347,0.0,0.0,0.0,0.0,-9.66856098175
1970/01/01/02:01:51.037000,194,0,0,world,8,1479,0.0,0.0,0.0,0.0809324198956,-0.131929014475,-0.00314298024687,0.0,0.0,0.0,0.0,0.0630090981722
1970/01/01/02:01:51.071000,195,0,0,world,8,1479,0.0,0.0,0.0,7.21074010274,-29.8464578938,-0.00654725124373,0.0,0.0,0.0,0.0,-10.6146831512
1970/01/01/02:01:51.106000,196,0,0,world,8,1479,0.0,0.0,0.0,7.95038383146,-28.9416463406,-0.0051138049869,0.0,0.0,0.0,0.0,-10.3216743469
1970/01/01/02:01:51.139000,197,0,0,world,8,1479,0.0,0.0,0.0,9.02694502738,-31.5971326631,-0.00101488161232,0.0,0.0,0.0,0.0,-11.1462774277
1970/01/01/02:01:51.173000,198,0,0,world,8,1479,0.0,0.0,0.0,0.184227266739,-0.307809483579,0.0104747134126,0.0,0.0,0.0,0.0,0.0997620597482
1970/01/01/02:01:51.205000,199,0,0,world,8,1479,0.0,0.0,0.0,0.26320969832,-0.372051652888,0.0180818120903,0.0,0.0,0.0,0.0,0.0891524106264
1970/01/01/02:01:51.239000,200,0,0,world,8,1479,0.0,0.0,0.0,0.281277803095,-0.399209712037,0.0248760850639,0.0,0.0,0.0,0.0,0.0931034684181
1970/01/01/02:01:51.272000,201,0,0,world,8,1479,0.0,0.0,0.0,0.243079077208,-0.259252830083,0.0382599462966,0.0,0.0,0.0,0.0,0.13731098175
1970/01/01/02:01:51.309000,202,0,0,world,8,1479,0.0,0.0,0.0,0.451759622179,-0.448112167783,0.0515788834274,0.0,0.0,0.0,0.0,0.0464062951505
1970/01/01/02:01:51.344000,203,0,0,world,8,1479,0.0,0.0,0.0,0.417038748776,-0.384921578688,0.058473070659,0.0,0.0,0.0,0.0,0.0714269131422
1970/01/01/02:01:51.374000,204,0,0,world,8,1479,0.0,0.0,0.0,0.350529470291,-0.440944194909,0.0543017522798,0.0,0.0,0.0,0.0,0.0653257742524
1970/01/01/02:01:51.408000,205,0,0,world,8,1479,0.0,0.0,0.0,0.279169194974,-0.433291831649,0.0534078074238,0.0,0.0,0.0,0.0,0.0758061856031
1970/01/01/02:01:51.444000,206,0,0,world,8,1479,0.0,0.0,0.0,0.311845682372,-0.407232201904,0.0537461089556,0.0,0.0,0.0,0.0,0.0729495882988
1970/01/01/02:01:51.478000,207,0,0,world,8,1479,0.0,0.0,0.0,0.250944673213,-0.391958983734,0.046975052273,0.0,0.0,0.0,0.0,0.0891962572932
1970/01/01/02:01:51.508000,208,0,0,world,8,1479,0.0,0.0,0.0,0.140469498164,-0.431430826165,0.0446544798849,0.0,0.0,0.0,0.0,0.0829673036933
1970/01/01/02:01:51.543000,209,0,0,world,8,1479,0.0,0.0,0.0,0.0288609630032,-0.208374841719,0.0460824930891,0.0,0.0,0.0,0.0,0.163790091872
1970/01/01/02:01:51.581000,210,0,0,world,8,1479,0.0,0.0,0.0,-0.00909717947007,-0.137487815604,0.0372052346799,0.0,0.0,0.0,0.0,0.190779983997
1970/01/01/02:01:51.609000,211,0,0,world,8,1479,0.0,0.0,0.0,-0.0428304816427,-0.156749817636,0.0289968726735,0.0,0.0,0.0,0.0,0.18066675961
1970/01/01/02:01:51.648000,212,0,0,world,8,1479,0.0,0.0,0.0,-0.22018219975,0.228743974419,0.0296549319267,0.0,0.0,0.0,0.0,0.297785192728
1970/01/01/02:01:51.677000,213,0,0,world,8,1479,0.0,0.0,0.0,-0.114762506488,0.0919921028028,0.0153381717303,0.0,0.0,0.0,0.0,0.240470305085
1970/01/01/02:01:51.716000,214,0,0,world,8,1479,0.0,0.0,0.0,-0.155344361557,0.231349677551,0.0123405140104,0.0,0.0,0.0,0.0,0.245466023684
1970/01/01/02:01:51.740000,215,0,0,world,8,1479,0.0,0.0,0.0,-0.0793034157385,0.136595851195,0.00159739583258,0.0,0.0,0.0,0.0,0.193891435862
1970/01/01/02:01:51.778000,216,0,0,world,8,1479,0.0,0.0,0.0,0.00740244299925,0.125995537335,-0.0028193389101,0.0,0.0,0.0,0.0,0.153055712581
1970/01/01/02:01:51.809000,217,0,0,world,8,1479,0.0,0.0,0.0,4.87056427105,-19.0968244806,-0.00830698080413,0.0,0.0,0.0,0.0,-7.00890731812
1970/01/01/02:01:51.850000,218,0,0,world,8,1479,0.0,0.0,0.0,3.98262965614,-18.7991608932,-0.00587233277609,0.0,0.0,0.0,0.0,-6.88336849213
1970/01/01/02:01:51.878000,219,0,0,world,8,1479,0.0,0.0,0.0,3.32849316466,-14.5515235107,-0.00268693736189,0.0,0.0,0.0,0.0,-5.36772918701
1970/01/01/02:01:51.914000,220,0,0,world,8,1479,0.0,0.0,0.0,0.00778496127079,0.298824873512,0.00190466178605,0.0,0.0,0.0,0.0,0.0597323738039
1970/01/01/02:01:51.942000,221,0,0,world,8,1479,0.0,0.0,0.0,3.03473654938,-10.3477715523,-0.000383046362576,0.0,0.0,0.0,0.0,-3.83122515678
1970/01/01/02:01:51.977000,222,0,0,world,8,1479,0.0,0.0,0.0,3.15491698757,-10.8408086537,-0.00156538020867,0.0,0.0,0.0,0.0,-4.01384210587
1970/01/01/02:01:52.008000,223,0,0,world,8,1479,0.0,0.0,0.0,3.34786606485,-9.73150114732,-0.00294776718425,0.0,0.0,0.0,0.0,-3.58902239799
1970/01/01/02:01:52.036000,224,0,0,world,8,1479,0.0,0.0,0.0,-0.0217105484735,0.111586797927,-0.000621693534127,0.0,0.0,0.0,0.0,0.0470014438033
1970/01/01/02:01:52.073000,225,0,0,world,8,1479,0.0,0.0,0.0,-5.67237322291e-05,0.100653790213,-0.00158453143434,0.0,0.0,0.0,0.0,0.0669024139643
1970/01/01/02:01:52.108000,226,0,0,world,8,1479,0.0,0.0,0.0,0.00363810763644,0.0217736944278,-0.00109344769155,0.0,0.0,0.0,0.0,0.0656182020903
1970/01/01/02:01:52.142000,227,0,0,world,8,1479,0.0,0.0,0.0,0.00417119663609,-0.0231254495664,1.72375267969e-06,0.0,0.0,0.0,0.0,0.0689334645867
1970/01/01/02:01:52.176000,228,0,0,world,8,1479,0.0,0.0,0.0,-0.0190714661142,0.0643631474883,0.00218572588921,0.0,0.0,0.0,0.0,0.10407653451
1970/01/01/02:01:52.208000,229,0,0,world,8,1479,0.0,0.0,0.0,-0.0291358145052,0.104263641554,0.00197616575479,0.0,0.0,0.0,0.0,0.109652101994
1970/01/01/02:01:52.243000,230,0,0,world,8,1479,0.0,0.0,0.0,-0.00193283291687,0.0521604346444,0.00026394908511,0.0,0.0,0.0,0.0,0.0749827548862
1970/01/01/02:01:52.277000,231,0,0,world,8,1479,0.0,0.0,0.0,4.33087591919,-17.811744902,-0.00373533287244,0.0,0.0,0.0,0.0,-6.53609275818
1970/01/01/02:01:52.306000,232,0,0,world,8,1479,0.0,0.0,0.0,0.00224177045667,0.167273071606,-0.000354805503904,0.0,0.0,0.0,0.0,0.0635407790542
1970/01/01/02:01:52.344000,233,0,0,world,8,1479,0.0,0.0,0.0,-0.0106792800889,0.253611251089,2.00327579074e-05,0.0,0.0,0.0,0.0,0.0680398494005
1970/01/01/02:01:52.372000,234,0,0,world,8,1479,0.0,0.0,0.0,-0.00972195899799,0.276074337951,0.000368599851446,0.0,0.0,0.0,0.0,0.0641897320747
1970/01/01/02:01:52.407000,235,0,0,world,8,1479,0.0,0.0,0.0,-0.00918379122683,0.29671031016,0.000770133912762,0.0,0.0,0.0,0.0,0.0605472400784
1970/01/01/02:01:52.442000,236,0,0,world,8,1479,0.0,0.0,0.0,2.84358403725,-12.2614980538,-0.000946127613336,0.0,0.0,0.0,0.0,-4.52371835709
1970/01/01/02:01:52.471000,237,0,0,world,8,1479,0.0,0.0,0.0,2.55079548926,-12.1130751972,0.000138447252311,0.0,0.0,0.0,0.0,-4.46187496185
1970/01/01/02:01:52.510000,238,0,0,world,8,1479,0.0,0.0,0.0,-0.0091640816683,0.414419304026,0.00316465134922,0.0,0.0,0.0,0.0,0.0386807098985
1970/01/01/02:01:52.541000,239,0,0,world,8,1479,0.0,0.0,0.0,2.33796377948,-8.28959694578,0.00179964146187,0.0,0.0,0.0,0.0,-3.05293488503
1970/01/01/02:01:52.576000,240,0,0,world,8,1479,0.0,0.0,0.0,2.2745944546,-8.31133421677,0.00189976601438,0.0,0.0,0.0,0.0,-3.05894184113
1970/01/01/02:01:52.610000,241,0,0,world,8,1479,0.0,0.0,0.0,2.24738289744,-8.3927394887,0.00174945435918,0.0,0.0,0.0,0.0,-3.08810400963
1970/01/01/02:01:52.647000,242,0,0,world,8,1479,0.0,0.0,0.0,2.27892100672,-8.5683810806,0.00125530444205,0.0,0.0,0.0,0.0,-3.15339183807
1970/01/01/02:01:52.679000,243,0,0,world,8,1479,0.0,0.0,0.0,2.11395870035,-12.3681323806,0.000605165341436,0.0,0.0,0.0,0.0,-4.54393291473
1970/01/01/02:01:52.708000,244,0,0,world,8,1479,0.0,0.0,0.0,-0.00759877809285,0.384724113966,0.00136168179746,0.0,0.0,0.0,0.0,0.0510182380676
1970/01/01/02:01:52.739000,245,0,0,world,8,1479,0.0,0.0,0.0,0.0531307962395,0.450106916292,0.000437271413578,0.0,0.0,0.0,0.0,0.109522558749
1970/01/01/02:01:52.775000,246,0,0,world,8,1479,0.0,0.0,0.0,0.00392448127433,0.189480701012,1.85643571867e-05,0.0,0.0,0.0,0.0,0.0503869093955
1970/01/01/02:01:52.807000,247,0,0,world,8,1479,0.0,0.0,0.0,0.00144302806125,0.192910841263,-2.09591664761e-06,0.0,0.0,0.0,0.0,0.0729862675071
1970/01/01/02:01:52.842000,248,0,0,world,8,1479,0.0,0.0,0.0,0.0170991990218,0.158148494428,0.000677689030844,0.0,0.0,0.0,0.0,0.0677068829536
1970/01/01/02:01:52.877000,249,0,0,world,8,1479,0.0,0.0,0.0,0.019652710186,0.126508286036,0.0001307473657,0.0,0.0,0.0,0.0,0.0496965423226
1970/01/01/02:01:52.910000,250,0,0,world,8,1479,0.0,0.0,0.0,0.0200299160797,0.153594557982,-0.000403466138767,0.0,0.0,0.0,0.0,0.0401197448373
1970/01/01/02:01:52.942000,251,0,0,world,8,1479,0.0,0.0,0.0,0.0355460169363,0.236719719482,-4.10191499607e-05,0.0,0.0,0.0,0.0,0.0423001386225
1970/01/01/02:01:52.976000,252,0,0,world,8,1479,0.0,0.0,0.0,0.0260972319743,0.223298847251,0.000817700800215,0.0,0.0,0.0,0.0,0.0223408900201
1970/01/01/02:01:53.001000,253,0,0,world,8,1479,0.0,0.0,0.0,0.0333522486212,0.28819639491,0.00160390151885,0.0,0.0,0.0,0.0,0.0260847248137
1970/01/01/02:01:53.043000,254,0,0,world,8,1479,0.0,0.0,0.0,0.0461916339915,0.364348145079,0.0023739586333,0.0,0.0,0.0,0.0,0.0311255194247
1970/01/01/02:01:53.072000,255,0,0,world,8,1479,0.0,0.0,0.0,0.0363167021415,0.357007498405,0.00464824627641,0.0,0.0,0.0,0.0,0.00948505662382
1970/01/01/02:01:53.111000,256,0,0,world,8,1479,0.0,0.0,0.0,0.0240676825142,0.353092631989,0.00727674532228,0.0,0.0,0.0,0.0,-0.0118529861793
1970/01/01/02:01:53.143000,257,0,0,world,8,1479,0.0,0.0,0.0,0.026018193005,0.463301570999,0.00855555893135,0.0,0.0,0.0,0.0,0.00977709144354
1970/01/01/02:01:53.175000,258,0,0,world,8,1479,0.0,0.0,0.0,0.0399956416502,0.532703607825,0.0110394635376,0.0,0.0,0.0,0.0,0.0121130673215
1970/01/01/02:01:53.211000,259,0,0,world,8,1479,0.0,0.0,0.0,0.0310162593051,0.529991430389,0.0125645686185,0.0,0.0,0.0,0.0,-0.00336893461645
1970/01/01/02:01:53.242000,260,0,0,world,8,1479,0.0,0.0,0.0,0.0289680828975,0.530250874446,0.0139346680694,0.0,0.0,0.0,0.0,-0.020339101553
1970/01/01/02:01:53.274000,261,0,0,world,8,1479,0.0,0.0,0.0,0.0235141267557,0.568437249049,0.0153132626867,0.0,0.0,0.0,0.0,-0.016025133431
1970/01/01/02:01:53.306000,262,0,0,world,8,1479,0.0,0.0,0.0,0.0161291012559,0.560500514337,0.0186778710722,0.0,0.0,0.0,0.0,-0.0351901687682
1970/01/01/02:01:53.338000,263,0,0,world,8,1479,0.0,0.0,0.0,0.00579130663928,0.54638542496,0.0200880996374,0.0,0.0,0.0,0.0,-0.0530798509717
1970/01/01/02:01:53.373000,264,0,0,world,8,1479,0.0,0.0,0.0,-0.0051431237973,0.503704127556,0.0224815242074,0.0,0.0,0.0,0.0,-0.0808832719922
1970/01/01/02:01:53.410000,265,0,0,world,8,1479,0.0,0.0,0.0,0.0100397818375,0.626741404416,0.0227577160032,0.0,0.0,0.0,0.0,-0.0367164090276
1970/01/01/02:01:53.442000,266,0,0,world,8,1479,0.0,0.0,0.0,0.00510731492565,0.583910330285,0.0245635353333,0.0,0.0,0.0,0.0,-0.0489227622747
1970/01/01/02:01:53.476000,267,0,0,world,8,1479,0.0,0.0,0.0,0.0195614270165,0.583257976609,0.0250690920832,0.0,0.0,0.0,0.0,-0.0411112420261
1970/01/01/02:01:53.509000,268,0,0,world,8,1479,0.0,0.0,0.0,0.0232504812217,0.502326268307,0.0228912319431,0.0,0.0,0.0,0.0,-0.0604148060083
1970/01/01/02:01:53.539000,269,0,0,world,8,1479,0.0,0.0,0.0,0.0256759774641,0.539392640797,0.0226939586096,0.0,0.0,0.0,0.0,-0.0404755547643
1970/01/01/02:01:53.572000,270,0,0,world,8,1479,0.0,0.0,0.0,0.031961788711,0.565215840777,0.02188976957,0.0,0.0,0.0,0.0,-0.0238186977804
1970/01/01/02:01:53.609000,271,0,0,world,8,1479,0.0,0.0,0.0,0.050249787308,0.511280715046,0.0190580435356,0.0,0.0,0.0,0.0,-0.0345838554204
1970/01/01/02:01:53.645000,272,0,0,world,8,1479,0.0,0.0,0.0,0.0677568640006,0.522010471307,0.0173553551883,0.0,0.0,0.0,0.0,-0.0223469547927
1970/01/01/02:01:53.672000,273,0,0,world,8,1479,0.0,0.0,0.0,0.0474660703638,0.471332927656,0.0152801270846,0.0,0.0,0.0,0.0,-0.0340193770826
1970/01/01/02:01:53.707000,274,0,0,world,8,1479,0.0,0.0,0.0,0.0458270085896,0.407338923593,0.0135281166175,0.0,0.0,0.0,0.0,-0.0402313172817
1970/01/01/02:01:53.743000,275,0,0,world,8,1479,0.0,0.0,0.0,0.0777807307371,0.492532396399,0.0105221218792,0.0,0.0,0.0,0.0,-0.000884499924723
1970/01/01/02:01:53.775000,276,0,0,world,8,1479,0.0,0.0,0.0,0.0781554677536,0.370265415139,0.00834528784249,0.0,0.0,0.0,0.0,-0.0302210655063
1970/01/01/02:01:53.806000,277,0,0,world,8,1479,0.0,0.0,0.0,0.0754018586757,0.426334523547,0.00551085936431,0.0,0.0,0.0,0.0,0.00132257246878
1970/01/01/02:01:53.842000,278,0,0,world,8,1479,0.0,0.0,0.0,0.128989873474,0.366654044774,0.0038027753317,0.0,0.0,0.0,0.0,-0.010265682824
1970/01/01/02:01:53.876000,279,0,0,world,8,1479,0.0,0.0,0.0,0.114804802009,0.285739735536,0.00262923492058,0.0,0.0,0.0,0.0,-0.018988981843
1970/01/01/02:01:53.910000,280,0,0,world,8,1479,0.0,0.0,0.0,0.158311062706,0.306042577297,0.001349078683,0.0,0.0,0.0,0.0,-0.00857487972826
1970/01/01/02:01:53.940000,281,0,0,world,8,1479,0.0,0.0,0.0,0.128735142148,0.264387761641,0.000423612275921,0.0,0.0,0.0,0.0,-0.00822075735778
1970/01/01/02:01:53.976000,282,0,0,world,8,1479,0.0,0.0,0.0,0.163932412138,0.23788456475,-0.000337033110498,0.0,0.0,0.0,0.0,-0.00886619649827
1970/01/01/02:01:54.009000,283,0,0,world,8,1479,0.0,0.0,0.0,0.175145261756,0.290970728134,-0.000916256831285,0.0,0.0,0.0,0.0,0.0264058653265
1970/01/01/02:01:54.041000,284,0,0,world,8,1479,0.0,0.0,0.0,0.217226370741,0.165222042217,-0.000996887103146,0.0,0.0,0.0,0.0,-0.00617823936045
1970/01/01/02:01:54.078000,285,0,0,world,8,1479,0.0,0.0,0.0,0.25034983046,0.154603655844,-0.000830061796356,0.0,0.0,0.0,0.0,-0.00232635182329
1970/01/01/02:01:54.104000,286,0,0,world,8,1479,0.0,0.0,0.0,0.25305415486,0.0938660624724,-0.000325693442339,0.0,0.0,0.0,0.0,-0.0077525167726
1970/01/01/02:01:54.144000,287,0,0,world,8,1479,0.0,0.0,0.0,0.288276734477,0.105308786758,-0.000219771558274,0.0,0.0,0.0,0.0,-0.00304130092263
1970/01/01/02:01:54.175000,288,0,0,world,8,1479,0.0,0.0,0.0,0.256785276345,0.0392564334037,0.000596180253347,0.0,0.0,0.0,0.0,-0.00958467740566
1970/01/01/02:01:54.203000,289,0,0,world,8,1479,0.0,0.0,0.0,0.269475791264,0.130639287346,0.000970608307366,0.0,0.0,0.0,0.0,0.035691704601
1970/01/01/02:01:54.237000,290,0,0,world,8,1479,0.0,0.0,0.0,0.340163621413,-0.0150838203651,0.00295472344393,0.0,0.0,0.0,0.0,-0.00793259497732
1970/01/01/02:01:54.276000,291,0,0,world,8,1479,0.0,0.0,0.0,0.317064231715,-0.00277752403243,0.00357847246502,0.0,0.0,0.0,0.0,0.00714728049934
1970/01/01/02:01:54.308000,292,0,0,world,8,1479,0.0,0.0,0.0,0.361294490318,-0.0465600070519,0.00525702966692,0.0,0.0,0.0,0.0,-0.00365513772704
1970/01/01/02:01:54.343000,293,0,0,world,8,1479,0.0,0.0,0.0,0.351384840664,-0.0331430182421,0.00651335340073,0.0,0.0,0.0,0.0,0.00940775033087
1970/01/01/02:01:54.374000,294,0,0,world,8,1479,0.0,0.0,0.0,0.360173239972,-0.0586483498599,0.00772436552039,0.0,0.0,0.0,0.0,0.00326177338138
1970/01/01/02:01:54.408000,295,0,0,world,8,1479,0.0,0.0,0.0,0.37048091673,-0.0429314807012,0.00838983538314,0.0,0.0,0.0,0.0,0.00883130263537
1970/01/01/02:01:54.440000,296,0,0,world,8,1479,0.0,0.0,0.0,0.358133470923,0.057076753079,0.00813989937345,0.0,0.0,0.0,0.0,0.0472926236689
1970/01/01/02:01:54.475000,297,0,0,world,8,1479,0.0,0.0,0.0,0.399663762403,-0.0659141295125,0.0112638014812,0.0,0.0,0.0,0.0,0.0131746307015
1970/01/01/02:01:54.515000,298,0,0,world,8,1479,0.0,0.0,0.0,0.365714967699,-0.0859399299631,0.00881811415892,0.0,0.0,0.0,0.0,0.00994519609958
1970/01/01/02:01:54.538000,299,0,0,world,8,1479,0.0,0.0,0.0,0.356744975467,0.00598188148479,0.0104118860063,0.0,0.0,0.0,0.0,0.0412166304886
1970/01/01/02:01:54.568000,300,0,0,world,8,1479,0.0,0.0,0.0,0.313783812443,-0.0213138924342,0.00969082744371,0.0,0.0,0.0,0.0,0.0290287043899
1970/01/01/02:01:54.607000,301,0,0,world,8,1479,0.0,0.0,0.0,0.288942730807,0.0225635032825,0.00676799239267,0.0,0.0,0.0,0.0,0.0407979376614
1970/01/01/02:01:54.652000,302,0,0,world,8,1479,0.0,0.0,0.0,0.277139961165,0.128287252484,0.00731474183325,0.0,0.0,0.0,0.0,0.0695568695664
1970/01/01/02:01:54.677000,303,0,0,world,8,1479,0.0,0.0,0.0,0.232963178775,0.270671790206,0.00704629748006,0.0,0.0,0.0,0.0,0.110173821449
1970/01/01/02:01:54.708000,304,0,0,world,8,1479,0.0,0.0,0.0,0.241213478423,0.160836293309,0.00639385460072,0.0,0.0,0.0,0.0,0.0729368403554
1970/01/01/02:01:54.736000,305,0,0,world,8,1479,0.0,0.0,0.0,0.212856613232,0.131803437186,0.00427843632893,0.0,0.0,0.0,0.0,0.0621447451413
1970/01/01/02:01:54.777000,306,0,0,world,8,1479,0.0,0.0,0.0,0.215543969797,0.202680485502,0.00194497703242,0.0,0.0,0.0,0.0,0.0501463785768
1970/01/01/02:01:54.811000,307,0,0,world,8,1479,0.0,0.0,0.0,0.198989924297,0.192126049614,0.00117971124477,0.0,0.0,0.0,0.0,0.0304611250758
1970/01/01/02:01:54.842000,308,0,0,world,8,1479,0.0,0.0,0.0,0.206295457085,0.185615481801,0.000980460109187,0.0,0.0,0.0,0.0,0.0162516869605
1970/01/01/02:01:54.872000,309,0,0,world,8,1479,0.0,0.0,0.0,0.181992138755,0.193077257791,0.000833981436799,0.0,0.0,0.0,0.0,0.0216046757996
1970/01/01/02:01:54.909000,310,0,0,world,8,1479,0.0,0.0,0.0,0.218731150812,0.275362656157,0.00177050634819,0.0,0.0,0.0,0.0,0.016789060086
1970/01/01/02:01:54.938000,311,0,0,world,8,1479,0.0,0.0,0.0,0.203364993237,0.160189886707,0.00152969008978,0.0,0.0,0.0,0.0,-0.0216633789241
1970/01/01/02:01:54.975000,312,0,0,world,8,1479,0.0,0.0,0.0,0.201431930018,0.114195893282,0.00249959655412,0.0,0.0,0.0,0.0,-0.0462037622929
1970/01/01/02:01:55.007000,313,0,0,world,8,1479,0.0,0.0,0.0,0.209323947019,0.167885263965,0.00284846663411,0.0,0.0,0.0,0.0,-0.0328575782478
1970/01/01/02:01:55.044000,314,0,0,world,8,1479,0.0,0.0,0.0,0.20250650467,0.211876825453,0.00222798242972,0.0,0.0,0.0,0.0,-0.0159145463258
1970/01/01/02:01:55.071000,315,0,0,world,8,1479,0.0,0.0,0.0,0.200540108347,0.173964098365,0.00288235582374,0.0,0.0,0.0,0.0,-0.0293553359807
1970/01/01/02:01:55.105000,316,0,0,world,8,1479,0.0,0.0,0.0,0.205092511678,0.153381581037,0.00250375867954,0.0,0.0,0.0,0.0,-0.0267096608877
1970/01/01/02:01:55.140000,317,0,0,world,8,1479,0.0,0.0,0.0,0.210668793016,0.149027191948,0.00268278368211,0.0,0.0,0.0,0.0,-0.0362502038479
1970/01/01/02:01:55.172000,318,0,0,world,8,1479,0.0,0.0,0.0,0.196813177946,0.140223648568,0.00230319760276,0.0,0.0,0.0,0.0,-0.0278662275523
1970/01/01/02:01:55.214000,319,0,0,world,8,1479,0.0,0.0,0.0,0.208307346734,0.252944321818,0.00245276849642,0.0,0.0,0.0,0.0,0.0176667887717
1970/01/01/02:01:55.238000,320,0,0,world,8,1479,0.0,0.0,0.0,0.208519771732,0.130218998514,0.00206719799205,0.0,0.0,0.0,0.0,-0.0168440844864
1970/01/01/02:01:55.277000,321,0,0,world,8,1479,0.0,0.0,0.0,0.21326571624,0.12495067197,0.00205828850074,0.0,0.0,0.0,0.0,-0.01547022257
1970/01/01/02:01:55.311000,322,0,0,world,8,1479,0.0,0.0,0.0,0.22884288037,0.119138164431,0.00210389464707,0.0,0.0,0.0,0.0,-0.0211378093809
1970/01/01/02:01:55.340000,323,0,0,world,8,1479,0.0,0.0,0.0,0.213126398691,0.107150776861,0.00206815955855,0.0,0.0,0.0,0.0,-0.0212696306407
1970/01/01/02:01:55.372000,324,0,0,world,8,1479,0.0,0.0,0.0,0.214183861164,0.114755672485,0.00208439682569,0.0,0.0,0.0,0.0,-0.0133335422724
1970/01/01/02:01:55.404000,325,0,0,world,8,1479,0.0,0.0,0.0,0.253323255442,0.150345431445,0.00215279887313,0.0,0.0,0.0,0.0,-0.00299057248048
1970/01/01/02:01:55.439000,326,0,0,world,8,1479,0.0,0.0,0.0,0.245073266674,0.236296687046,0.0022829710364,0.0,0.0,0.0,0.0,0.034060690552
1970/01/01/02:01:55.472000,327,0,0,world,8,1479,0.0,0.0,0.0,0.2314587756,0.170835031664,0.00236267317208,0.0,0.0,0.0,0.0,0.0138348359615
1970/01/01/02:01:55.506000,328,0,0,world,8,1479,0.0,0.0,0.0,0.231504024757,0.175898403898,0.00209710396252,0.0,0.0,0.0,0.0,0.0118456725031
1970/01/01/02:01:55.540000,329,0,0,world,8,1479,0.0,0.0,0.0,0.246196474235,0.247310432495,0.00163148077402,0.0,0.0,0.0,0.0,0.0273065976799
1970/01/01/02:01:55.582000,330,0,0,world,8,1479,0.0,0.0,0.0,0.218682091542,0.183971698094,0.00126138832886,0.0,0.0,0.0,0.0,0.00267865718342
1970/01/01/02:01:55.606000,331,0,0,world,8,1479,0.0,0.0,0.0,0.235339398052,0.188425177923,0.00104494781563,0.0,0.0,0.0,0.0,-0.00664893817157
1970/01/01/02:01:55.655000,332,0,0,world,8,1479,0.0,0.0,0.0,0.198001551346,0.214862111856,0.00129674329692,0.0,0.0,0.0,0.0,-0.00382180558518
1970/01/01/02:01:55.682000,333,0,0,world,8,1479,0.0,0.0,0.0,0.200755488197,0.164556940712,0.00105642378621,0.0,0.0,0.0,0.0,-0.0283464360982
1970/01/01/02:01:55.712000,334,0,0,world,8,1479,0.0,0.0,0.0,0.211802164839,0.191179059715,0.0011954067038,0.0,0.0,0.0,0.0,-0.0224152076989
1970/01/01/02:01:55.742000,335,0,0,world,8,1479,0.0,0.0,0.0,0.19259233705,0.143819088452,0.00134537715381,0.0,0.0,0.0,0.0,-0.0389336384833
1970/01/01/02:01:55.776000,336,0,0,world,8,1479,0.0,0.0,0.0,0.223105883807,0.267381510296,0.00134708889873,0.0,0.0,0.0,0.0,0.00588784832507
1970/01/01/02:01:55.808000,337,0,0,world,8,1479,0.0,0.0,0.0,0.205230009283,0.190809405944,0.00192008655108,0.0,0.0,0.0,0.0,-0.0159657299519
1970/01/01/02:01:55.840000,338,0,0,world,8,1479,0.0,0.0,0.0,0.204166352358,0.18766708729,0.00212649853158,0.0,0.0,0.0,0.0,-0.0143448263407
1970/01/01/02:01:55.873000,339,0,0,world,8,1479,0.0,0.0,0.0,0.202813481733,0.186083299896,0.00230621915306,0.0,0.0,0.0,0.0,-0.0142069347203
1970/01/01/02:01:55.906000,340,0,0,world,8,1479,0.0,0.0,0.0,0.18449211495,0.178523329985,0.00237956648013,0.0,0.0,0.0,0.0,-0.0143993142992
1970/01/01/02:01:55.940000,341,0,0,world,8,1479,0.0,0.0,0.0,0.210216099842,0.255838054082,0.00199198990923,0.0,0.0,0.0,0.0,0.0105081042275
1970/01/01/02:01:55.974000,342,0,0,world,8,1479,0.0,0.0,0.0,0.180254745363,0.205868829248,0.00251204095912,0.0,0.0,0.0,0.0,-0.000902636907995
1970/01/01/02:01:56.006000,343,0,0,world,8,1479,0.0,0.0,0.0,0.169257208956,0.103194811867,0.00214293094082,0.0,0.0,0.0,0.0,-0.0363101623952
1970/01/01/02:01:56.040000,344,0,0,world,8,1479,0.0,0.0,0.0,0.166386502888,0.0708846272762,0.00294870564805,0.0,0.0,0.0,0.0,-0.0503096096218
1970/01/01/02:01:56.078000,345,0,0,world,8,1479,0.0,0.0,0.0,0.162235157578,0.123080037837,0.00236564624751,0.0,0.0,0.0,0.0,-0.0329429730773
1970/01/01/02:01:56.108000,346,0,0,world,8,1479,0.0,0.0,0.0,0.162543313508,0.11944216087,0.0022823450139,0.0,0.0,0.0,0.0,-0.0298004541546
1970/01/01/02:01:56.144000,347,0,0,world,8,1479,0.0,0.0,0.0,0.167850574864,0.0963070670308,0.00211178452666,0.0,0.0,0.0,0.0,-0.0303094796836
1970/01/01/02:01:56.177000,348,0,0,world,8,1479,0.0,0.0,0.0,0.192498723121,0.209760289548,0.00255029717048,0.0,0.0,0.0,0.0,0.0159038566053
1970/01/01/02:01:56.209000,349,0,0,world,8,1479,0.0,0.0,0.0,0.167095306248,0.15674743269,0.00265907786366,0.0,0.0,0.0,0.0,-0.00289689865895
1970/01/01/02:01:56.242000,350,0,0,world,8,1479,0.0,0.0,0.0,0.183816464253,0.162523477444,0.00272889500879,0.0,0.0,0.0,0.0,0.00134782027453
1970/01/01/02:01:56.270000,351,0,0,world,8,1479,0.0,0.0,0.0,0.167399318995,0.118126751211,0.00311464734469,0.0,0.0,0.0,0.0,-0.0113160358742
1970/01/01/02:01:56.307000,352,0,0,world,8,1479,0.0,0.0,0.0,0.196230503183,0.183877654097,0.00269552671267,0.0,0.0,0.0,0.0,0.00347414496355
1970/01/01/02:01:56.341000,353,0,0,world,8,1479,0.0,0.0,0.0,0.19235845677,0.207961041487,0.00241713747905,0.0,0.0,0.0,0.0,0.0166453942657
1970/01/01/02:01:56.373000,354,0,0,world,8,1479,0.0,0.0,0.0,0.185530992091,0.0931761997112,0.00195179335204,0.0,0.0,0.0,0.0,-0.0265435818583
1970/01/01/02:01:56.412000,355,0,0,world,8,1479,0.0,0.0,0.0,0.174552390427,0.247403664969,0.00178166774263,0.0,0.0,0.0,0.0,0.0237790644169
1970/01/01/02:01:56.443000,356,0,0,world,8,1479,0.0,0.0,0.0,0.174972161806,0.175493868428,0.00136562954522,0.0,0.0,0.0,0.0,-0.00800035893917
1970/01/01/02:01:56.476000,357,0,0,world,8,1479,0.0,0.0,0.0,0.162438551889,0.173275578101,0.00194600036318,0.0,0.0,0.0,0.0,-0.0105425203219
1970/01/01/02:01:56.508000,358,0,0,world,8,1479,0.0,0.0,0.0,0.176123352444,0.233424764285,0.00139966190752,0.0,0.0,0.0,0.0,0.00615192297846
1970/01/01/02:01:56.538000,359,0,0,world,8,1479,0.0,0.0,0.0,0.158688231384,0.192536389866,0.00192953574421,0.0,0.0,0.0,0.0,-0.00751757528633
1970/01/01/02:01:56.576000,360,0,0,world,8,1479,0.0,0.0,0.0,0.131649465226,0.192551827691,0.0028085645229,0.0,0.0,0.0,0.0,-0.0102102067322
1970/01/01/02:01:56.610000,361,0,0,world,8,1479,0.0,0.0,0.0,0.178450632331,0.247559329285,0.00262712812642,0.0,0.0,0.0,0.0,-0.00522268749774
1970/01/01/02:01:56.644000,362,0,0,world,8,1479,0.0,0.0,0.0,0.167836703462,0.121137156663,0.00322918139271,0.0,0.0,0.0,0.0,-0.0550842471421
1970/01/01/02:01:56.676000,363,0,0,world,8,1479,0.0,0.0,0.0,0.157424109064,0.217434658282,0.00314636489102,0.0,0.0,0.0,0.0,-0.0253815166652
1970/01/01/02:01:56.706000,364,0,0,world,8,1479,0.0,0.0,0.0,0.153784909179,0.223844625594,0.00345941073012,0.0,0.0,0.0,0.0,-0.0268614254892
1970/01/01/02:01:56.745000,365,0,0,world,8,1479,0.0,0.0,0.0,0.166701323471,0.226050547988,0.00338927837432,0.0,0.0,0.0,0.0,-0.0241368375719
1970/01/01/02:01:56.770000,366,0,0,world,8,1479,0.0,0.0,0.0,0.165322625254,0.228874177609,0.00342363360671,0.0,0.0,0.0,0.0,-0.0243070460856
1970/01/01/02:01:56.811000,367,0,0,world,8,1479,0.0,0.0,0.0,0.166629913406,0.224296061482,0.00347027360382,0.0,0.0,0.0,0.0,-0.028413945809
1970/01/01/02:01:56.847000,368,0,0,world,8,1479,0.0,0.0,0.0,0.150817197106,0.220536759499,0.00340671828019,0.0,0.0,0.0,0.0,-0.0288614388555
1970/01/01/02:01:56.875000,369,0,0,world,8,1479,0.0,0.0,0.0,0.136924001007,0.217312929209,0.00330366466013,0.0,0.0,0.0,0.0,-0.0289437808096
1970/01/01/02:01:56.905000,370,0,0,world,8,1479,0.0,0.0,0.0,0.151779195114,0.264711160141,0.00251277947229,0.0,0.0,0.0,0.0,-0.0148945655674
1970/01/01/02:01:56.938000,371,0,0,world,8,1479,0.0,0.0,0.0,0.154142138242,0.168504659238,0.00386573499667,0.0,0.0,0.0,0.0,-0.0498279444873
1970/01/01/02:01:56.970000,372,0,0,world,8,1479,0.0,0.0,0.0,0.154893241893,0.166614833694,0.00382651363044,0.0,0.0,0.0,0.0,-0.0494015514851
1970/01/01/02:01:57.010000,373,0,0,world,8,1479,0.0,0.0,0.0,0.160821198085,0.246808866561,0.00440955936736,0.0,0.0,0.0,0.0,-0.0255754534155
1970/01/01/02:01:57.040000,374,0,0,world,8,1479,0.0,0.0,0.0,0.193918916857,0.322275786224,0.00282087102311,0.0,0.0,0.0,0.0,-0.00389230391011
1970/01/01/02:01:57.073000,375,0,0,world,8,1479,0.0,0.0,0.0,0.171726968703,0.245072770308,0.0030368677051,0.0,0.0,0.0,0.0,-0.0229261238128
1970/01/01/02:01:57.106000,376,0,0,world,8,1479,0.0,0.0,0.0,0.185051501121,0.237425237949,0.00282302753724,0.0,0.0,0.0,0.0,-0.0254065189511
1970/01/01/02:01:57.143000,377,0,0,world,8,1479,0.0,0.0,0.0,0.18998513854,0.223214301307,0.00269615310791,0.0,0.0,0.0,0.0,-0.0360252596438
1970/01/01/02:01:57.173000,378,0,0,world,8,1479,0.0,0.0,0.0,0.196700691664,0.344425941332,0.00228129088069,0.0,0.0,0.0,0.0,-0.00101204635575
1970/01/01/02:01:57.208000,379,0,0,world,8,1479,0.0,0.0,0.0,0.20168018715,0.267622127816,0.00184797830611,0.0,0.0,0.0,0.0,-0.0334304235876
1970/01/01/02:01:57.243000,380,0,0,world,8,1479,0.0,0.0,0.0,0.196782091965,0.284919348945,0.00284829410045,0.0,0.0,0.0,0.0,-0.0245588496327
1970/01/01/02:01:57.275000,381,0,0,world,8,1479,0.0,0.0,0.0,0.216580154038,0.331513976461,0.00209315662705,0.0,0.0,0.0,0.0,-0.0141018237919
1970/01/01/02:01:57.307000,382,0,0,world,8,1479,0.0,0.0,0.0,0.218985941383,0.36906773997,0.00133663896305,0.0,0.0,0.0,0.0,-0.0043054590933
1970/01/01/02:01:57.335000,383,0,0,world,8,1479,0.0,0.0,0.0,0.231864424761,0.336547656514,0.00158296886507,0.0,0.0,0.0,0.0,-0.0158687345684
1970/01/01/02:01:57.372000,384,0,0,world,8,1479,0.0,0.0,0.0,0.255049213198,0.375664877297,0.00100365139132,0.0,0.0,0.0,0.0,-0.012216296047
1970/01/01/02:01:57.407000,385,0,0,world,8,1479,0.0,0.0,0.0,0.233341018348,0.383161350426,0.00100870827391,0.0,0.0,0.0,0.0,-0.0122867077589
1970/01/01/02:01:57.440000,386,0,0,world,8,1479,0.0,0.0,0.0,0.221350379251,0.363233500646,0.00159587696807,0.0,0.0,0.0,0.0,-0.0268039833754
1970/01/01/02:01:57.476000,387,0,0,world,8,1479,0.0,0.0,0.0,0.209534597436,0.289809171418,0.00105634810239,0.0,0.0,0.0,0.0,-0.0554612390697
1970/01/01/02:01:57.509000,388,0,0,world,8,1479,0.0,0.0,0.0,0.190156320993,0.368777604477,0.00122263440964,0.0,0.0,0.0,0.0,-0.030724292621
1970/01/01/02:01:57.538000,389,0,0,world,8,1479,0.0,0.0,0.0,0.190652776625,0.371507269625,0.00115738828247,0.0,0.0,0.0,0.0,-0.0326197184622
1970/01/01/02:01:57.570000,390,0,0,world,8,1479,0.0,0.0,0.0,0.189974364999,0.426025473431,0.00113145971184,0.0,0.0,0.0,0.0,-0.00930391345173
1970/01/01/02:01:57.601000,391,0,0,world,8,1479,0.0,0.0,0.0,0.210622890209,0.417981745072,0.00136164117821,0.0,0.0,0.0,0.0,-0.0119773140177
1970/01/01/02:01:57.649000,392,0,0,world,8,1479,0.0,0.0,0.0,0.231486784746,0.413030309635,0.00231548478183,0.0,0.0,0.0,0.0,-0.016524028033
1970/01/01/02:01:57.673000,393,0,0,world,8,1479,0.0,0.0,0.0,0.232261491953,0.411839546941,0.00231486786159,0.0,0.0,0.0,0.0,-0.0170158073306
1970/01/01/02:01:57.709000,394,0,0,world,8,1479,0.0,0.0,0.0,0.231579041955,0.41058012309,0.00286801781127,0.0,0.0,0.0,0.0,-0.0201557073742
1970/01/01/02:01:57.736000,395,0,0,world,8,1479,0.0,0.0,0.0,0.200869201626,0.378658511264,0.00287934999227,0.0,0.0,0.0,0.0,-0.0284165535122
1970/01/01/02:01:57.771000,396,0,0,world,8,1479,0.0,0.0,0.0,0.197604231816,0.38426083321,0.00285771281149,0.0,0.0,0.0,0.0,-0.0266751758754
1970/01/01/02:01:57.811000,397,0,0,world,8,1479,0.0,0.0,0.0,0.211721365893,0.393661263972,0.00251474015218,0.0,0.0,0.0,0.0,-0.0251725502312
1970/01/01/02:01:57.843000,398,0,0,world,8,1479,0.0,0.0,0.0,0.212102725456,0.385670146582,0.00227474141055,0.0,0.0,0.0,0.0,-0.0240237507969
1970/01/01/02:01:57.878000,399,0,0,world,8,1479,0.0,0.0,0.0,0.206065685991,0.368474711095,0.00181935468082,0.0,0.0,0.0,0.0,-0.0201267823577
1970/01/01/02:01:57.909000,400,0,0,world,8,1479,0.0,0.0,0.0,0.203572784786,0.360167783432,0.00143883087285,0.0,0.0,0.0,0.0,-0.0180615093559
1970/01/01/02:01:57.935000,401,0,0,world,8,1479,0.0,0.0,0.0,0.210881574876,0.402948214431,0.000816763939444,0.0,0.0,0.0,0.0,-0.00579175725579
1970/01/01/02:01:57.974000,402,0,0,world,8,1479,0.0,0.0,0.0,0.183606299487,0.294060878077,0.00112739803527,0.0,0.0,0.0,0.0,-0.0309020094573
1970/01/01/02:01:58.006000,403,0,0,world,8,1479,0.0,0.0,0.0,0.205488601967,0.329544980125,0.000677304391803,0.0,0.0,0.0,0.0,-0.016407456249
1970/01/01/02:01:58.041000,404,0,0,world,8,1479,0.0,0.0,0.0,0.241635275266,0.348730237842,0.000595651758621,0.0,0.0,0.0,0.0,-0.0118440883234
1970/01/01/02:01:58.072000,405,0,0,world,8,1479,0.0,0.0,0.0,0.230925501824,0.34935856369,1.81772256855e-05,0.0,0.0,0.0,0.0,-0.00699821906164
1970/01/01/02:01:58.108000,406,0,0,world,8,1479,0.0,0.0,0.0,0.255112004813,0.368410649586,-3.2478685268e-05,0.0,0.0,0.0,0.0,0.00491011701524
1970/01/01/02:01:58.133000,407,0,0,world,8,1479,0.0,0.0,0.0,0.218413582213,0.277166224699,3.72293921966e-05,0.0,0.0,0.0,0.0,-0.0204068291932
1970/01/01/02:01:58.174000,408,0,0,world,8,1479,0.0,0.0,0.0,0.273610951965,0.300778662294,-0.000541942612319,0.0,0.0,0.0,0.0,-0.014908246696
1970/01/01/02:01:58.212000,409,0,0,world,8,1479,0.0,0.0,0.0,0.255205911566,0.307996944296,-0.00110309230024,0.0,0.0,0.0,0.0,-0.000513562874403
1970/01/01/02:01:58.242000,410,0,0,world,8,1479,0.0,0.0,0.0,0.276988217699,0.219213056877,-0.00125388837779,0.0,0.0,0.0,0.0,-0.0263630971313
1970/01/01/02:01:58.277000,411,0,0,world,8,1479,0.0,0.0,0.0,0.2832417311,0.180882269777,-0.00162284777312,0.0,0.0,0.0,0.0,-0.0334513373673
1970/01/01/02:01:58.306000,412,0,0,world,8,1479,0.0,0.0,0.0,0.242927204907,0.245862808164,-0.00166462946409,0.0,0.0,0.0,0.0,-0.00959329959005
1970/01/01/02:01:58.334000,413,0,0,world,8,1479,0.0,0.0,0.0,0.282978380431,0.220527745976,-0.00154043185779,0.0,0.0,0.0,0.0,-0.0147797437385
1970/01/01/02:01:58.372000,414,0,0,world,8,1479,0.0,0.0,0.0,0.325356774452,0.192414062912,-0.000988055288843,0.0,0.0,0.0,0.0,-0.00793926976621
1970/01/01/02:01:58.415000,415,0,0,world,8,1479,0.0,0.0,0.0,0.384046377413,0.130338284547,-0.000549430318425,0.0,0.0,0.0,0.0,-0.0308660455048
1970/01/01/02:01:58.443000,416,0,0,world,8,1479,0.0,0.0,0.0,0.326174470969,0.197679608314,-0.00030706614207,0.0,0.0,0.0,0.0,0.0091325128451
1970/01/01/02:01:58.481000,417,0,0,world,8,1479,0.0,0.0,0.0,0.41787067019,0.138299349211,0.000922919499239,0.0,0.0,0.0,0.0,-0.0144335180521
1970/01/01/02:01:58.513000,418,0,0,world,8,1479,0.0,0.0,0.0,0.429890222797,0.0857275381988,0.000158834925228,0.0,0.0,0.0,0.0,-0.0313983373344
1970/01/01/02:01:58.540000,419,0,0,world,8,1479,0.0,0.0,0.0,0.426608054433,0.119772705052,0.00133910319967,0.0,0.0,0.0,0.0,-0.0140388533473
1970/01/01/02:01:58.575000,420,0,0,world,8,1479,0.0,0.0,0.0,0.380135025082,0.0657517667452,0.000819440333048,0.0,0.0,0.0,0.0,-0.0200356673449
1970/01/01/02:01:58.606000,421,0,0,world,8,1479,0.0,0.0,0.0,0.411522806129,0.135515802356,-1.25202170477e-05,0.0,0.0,0.0,0.0,0.002776915906
1970/01/01/02:01:58.650000,422,0,0,world,8,1479,0.0,0.0,0.0,0.469895843733,0.0615958782633,0.000634069487383,0.0,0.0,0.0,0.0,-0.0231872033328
1970/01/01/02:01:58.682000,423,0,0,world,8,1479,0.0,0.0,0.0,0.498991725524,-0.00813399285642,0.00133505866344,0.0,0.0,0.0,0.0,-0.0517027676105
1970/01/01/02:01:58.709000,424,0,0,world,8,1479,0.0,0.0,0.0,0.482142382391,0.0897604951709,0.000593056301326,0.0,0.0,0.0,0.0,-0.0165011435747
1970/01/01/02:01:58.746000,425,0,0,world,8,1479,0.0,0.0,0.0,0.472820459345,0.10157283095,0.000686302199132,0.0,0.0,0.0,0.0,-0.0103349993005
1970/01/01/02:01:58.780000,426,0,0,world,8,1479,0.0,0.0,0.0,0.490402728867,0.0855329681778,0.000850284382311,0.0,0.0,0.0,0.0,-0.0160352215171
1970/01/01/02:01:58.810000,427,0,0,world,8,1479,0.0,0.0,0.0,0.500192731738,0.0700553825505,0.00282866547883,0.0,0.0,0.0,0.0,-0.0171205215156
1970/01/01/02:01:58.841000,428,0,0,world,8,1479,0.0,0.0,0.0,0.496403012994,0.0773112265531,0.00217977712125,0.0,0.0,0.0,0.0,-0.017135379836
1970/01/01/02:01:58.873000,429,0,0,world,8,1479,0.0,0.0,0.0,0.49112570897,0.0854925570655,0.00157916204323,0.0,0.0,0.0,0.0,-0.0169277843088
1970/01/01/02:01:58.916000,430,0,0,world,8,1479,0.0,0.0,0.0,0.456882975527,0.142297579617,-0.00103026180978,0.0,0.0,0.0,0.0,-0.0015656130854
