time,.header.seq,.header.stamp.secs,.header.stamp.nsecs,.header.frame_id,.coordinate_frame,.type_mask,.position.x,.position.y,.position.z,.velocity.x,.velocity.y,.velocity.z,.acceleration_or_force.x,.acceleration_or_force.y,.acceleration_or_force.z,.yaw,.yaw_rate
1970/01/01/02:05:37.874000,1,0,0,world,8,1479,0.0,0.0,0.0,-0.0243908746681,0.242243280879,-0.00348561659096,0.0,0.0,0.0,0.0,0.00536445854232
1970/01/01/02:05:37.902000,2,0,0,world,8,1479,0.0,0.0,0.0,-0.0202511328177,0.283679692706,-0.00276557462242,0.0,0.0,0.0,0.0,0.0201369486749
1970/01/01/02:05:37.939000,3,0,0,world,8,1479,0.0,0.0,0.0,-0.0294757819192,0.086965802432,-0.00430582269608,0.0,0.0,0.0,0.0,-0.041332885623
1970/01/01/02:05:37.966000,4,0,0,world,8,1479,0.0,0.0,0.0,-0.0380494691688,0.128005496166,-0.00340056309299,0.0,0.0,0.0,0.0,-0.0258256606758
1970/01/01/02:05:38.014000,5,0,0,world,8,1479,0.0,0.0,0.0,-0.0469691590598,0.160978070776,-0.00390381001689,0.0,0.0,0.0,0.0,-0.0286657959223
1970/01/01/02:05:38.045000,6,0,0,world,8,1479,0.0,0.0,0.0,-0.0522566062767,0.236489499095,-0.00350845357949,0.0,0.0,0.0,0.0,-0.0183236598969
1970/01/01/02:05:38.100000,7,0,0,world,8,1479,0.0,0.0,0.0,-0.0598296075027,0.266480066545,-0.00494790577263,0.0,0.0,0.0,0.0,-0.0251705236733
1970/01/01/02:05:38.133000,8,0,0,world,8,1479,0.0,0.0,0.0,-0.0816810211226,0.300939215955,-0.00520634847678,0.0,0.0,0.0,0.0,-0.0339090973139
1970/01/01/02:05:38.166000,9,0,0,world,8,1479,0.0,0.0,0.0,-0.0975160605061,0.33651185466,-0.0058351223529,0.0,0.0,0.0,0.0,-0.0438078343868
1970/01/01/02:05:38.210000,10,0,0,world,8,1479,0.0,0.0,0.0,-0.111046385267,0.373420724444,-0.00672308848173,0.0,0.0,0.0,0.0,-0.0548233129084
1970/01/01/02:05:38.232000,11,0,0,world,8,1479,0.0,0.0,0.0,-0.133232751285,0.408709327063,-0.00745926483105,0.0,0.0,0.0,0.0,-0.0668836161494
1970/01/01/02:05:38.256000,12,0,0,world,8,1479,0.0,0.0,0.0,-0.165301104153,0.406149771489,-0.00719259339668,0.0,0.0,0.0,0.0,-0.0885833054781
1970/01/01/02:05:38.300000,13,0,0,world,8,1479,0.0,0.0,0.0,5.19018657176,-6.1444927054,-0.00248052841323,0.0,0.0,0.0,0.0,-1.85584616661
1970/01/01/02:05:38.322000,14,0,0,world,8,1479,0.0,0.0,0.0,5.20497646281,-5.78234100372,-0.00156074274597,0.0,0.0,0.0,0.0,-1.73562908173
1970/01/01/02:05:38.338000,15,0,0,world,8,1479,0.0,0.0,0.0,5.31217203786,-5.35985854703,-0.000283637610909,0.0,0.0,0.0,0.0,-1.59488296509
1970/01/01/02:05:38.369000,16,0,0,world,8,1479,0.0,0.0,0.0,5.05036198063,-5.67667657252,-0.000239828566859,0.0,0.0,0.0,0.0,-1.69731020927
1970/01/01/02:05:38.395000,17,0,0,world,8,1479,0.0,0.0,0.0,-0.162747867934,0.75352801214,0.00521661690597,0.0,0.0,0.0,0.0,-0.0287505276501
1970/01/01/02:05:38.433000,18,0,0,world,8,1479,0.0,0.0,0.0,-0.15281461479,0.73899642882,0.00545059802031,0.0,0.0,0.0,0.0,-0.0251357853413
1970/01/01/02:05:38.479000,19,0,0,world,8,1479,0.0,0.0,0.0,5.38943831711,-6.07054885452,-0.0020162827322,0.0,0.0,0.0,0.0,-1.83000183105
1970/01/01/02:05:38.508000,20,0,0,world,8,1479,0.0,0.0,0.0,-0.157577893517,0.590765304859,0.0039502780753,0.0,0.0,0.0,0.0,-0.00529021257535
1970/01/01/02:05:38.560000,21,0,0,world,8,1479,0.0,0.0,0.0,-0.158663510481,0.601238179593,0.00306863380225,0.0,0.0,0.0,0.0,0.00360743119381
1970/01/01/02:05:38.596000,22,0,0,world,8,1479,0.0,0.0,0.0,-0.164901407029,0.601415998368,0.00210423906134,0.0,0.0,0.0,0.0,0.00400101393461
1970/01/01/02:05:38.615000,23,0,0,world,8,1479,0.0,0.0,0.0,-0.172470201193,0.612104168086,0.0016600883533,0.0,0.0,0.0,0.0,-0.000466532597784
1970/01/01/02:05:38.628000,24,0,0,world,8,1479,0.0,0.0,0.0,-0.156221852122,0.580353153598,0.00333885533559,0.0,0.0,0.0,0.0,-0.0154322348535
1970/01/01/02:05:38.661000,25,0,0,world,8,1479,0.0,0.0,0.0,-0.148613688456,0.663094364142,0.00396579259263,0.0,0.0,0.0,0.0,-0.00595068186522
1970/01/01/02:05:38.687000,26,0,0,world,8,1479,0.0,0.0,0.0,-0.146595147098,0.728433954309,0.00605085902165,0.0,0.0,0.0,0.0,-0.00586242461577
1970/01/01/02:05:38.728000,27,0,0,world,8,1479,0.0,0.0,0.0,-0.1590937016,0.755280934229,0.00896277748178,0.0,0.0,0.0,0.0,-0.0192784518003
1970/01/01/02:05:38.754000,28,0,0,world,8,1479,0.0,0.0,0.0,-0.182189033092,0.726733895456,0.0124601990763,0.0,0.0,0.0,0.0,-0.0467102639377
1970/01/01/02:05:38.800000,29,0,0,world,8,1479,0.0,0.0,0.0,-0.161473894009,0.88914918835,0.0157613416278,0.0,0.0,0.0,0.0,-0.0269933957607
1970/01/01/02:05:38.834000,30,0,0,world,8,1479,0.0,0.0,0.0,-0.203263360321,0.832073247821,0.0180041125904,0.0,0.0,0.0,0.0,-0.0617921054363
1970/01/01/02:05:38.866000,31,0,0,world,8,1479,0.0,0.0,0.0,-0.194228612654,0.868203674984,0.0193804772141,0.0,0.0,0.0,0.0,-0.0565787293017
1970/01/01/02:05:38.897000,32,0,0,world,8,1479,0.0,0.0,0.0,-0.235831943817,0.793536618304,0.0224699261078,0.0,0.0,0.0,0.0,-0.0899006351829
1970/01/01/02:05:38.929000,33,0,0,world,8,1479,0.0,0.0,0.0,-0.249210551496,0.796934124444,0.0244610131315,0.0,0.0,0.0,0.0,-0.0967019349337
1970/01/01/02:05:38.947000,34,0,0,world,8,1479,0.0,0.0,0.0,-0.268650936243,0.763754604008,0.0257340755517,0.0,0.0,0.0,0.0,-0.108611650765
1970/01/01/02:05:38.988000,35,0,0,world,8,1479,0.0,0.0,0.0,-0.287270702067,0.714258703224,0.0308343080383,0.0,0.0,0.0,0.0,-0.123963668942
1970/01/01/02:05:39.060000,36,0,0,world,8,1479,0.0,0.0,0.0,-0.253557989021,0.719466373126,0.0283850694062,0.0,0.0,0.0,0.0,-0.101122878492
1970/01/01/02:05:39.085000,37,0,0,world,8,1479,0.0,0.0,0.0,-0.149574540565,0.842380278801,0.0276179237924,0.0,0.0,0.0,0.0,-0.0316494479775
1970/01/01/02:05:39.109000,38,0,0,world,8,1479,0.0,0.0,0.0,-0.224238554116,0.525548240327,0.0296774621582,0.0,0.0,0.0,0.0,-0.106020562351
1970/01/01/02:05:39.125000,39,0,0,world,8,1479,0.0,0.0,0.0,-0.21657521892,0.57252978771,0.0315909447356,0.0,0.0,0.0,0.0,-0.0959120690823
1970/01/01/02:05:39.156000,40,0,0,world,8,1479,0.0,0.0,0.0,-0.176681468655,0.589944902914,0.0255125588949,0.0,0.0,0.0,0.0,-0.0537806004286
1970/01/01/02:05:39.205000,41,0,0,world,8,1479,0.0,0.0,0.0,-0.164277634015,0.362315108247,0.0213593952899,0.0,0.0,0.0,0.0,-0.0792858824134
1970/01/01/02:05:39.248000,42,0,0,world,8,1479,0.0,0.0,0.0,-0.124527770694,0.476920482277,0.0207149123603,0.0,0.0,0.0,0.0,-0.0412953086197
1970/01/01/02:05:39.269000,43,0,0,world,8,1479,0.0,0.0,0.0,-0.117062666987,0.361541812985,0.0119723064359,0.0,0.0,0.0,0.0,-0.01508633513
1970/01/01/02:05:39.297000,44,0,0,world,8,1479,0.0,0.0,0.0,-0.0295134178874,0.325290091222,0.00770381922414,0.0,0.0,0.0,0.0,0.00915640871972
1970/01/01/02:05:39.321000,45,0,0,world,8,1479,0.0,0.0,0.0,-0.0815951585836,0.270446342835,0.0072185774505,0.0,0.0,0.0,0.0,-0.00936915166676
1970/01/01/02:05:39.395000,46,0,0,world,8,1479,0.0,0.0,0.0,0.0741800990952,0.240796241921,0.000233581361754,0.0,0.0,0.0,0.0,0.0541163347661
1970/01/01/02:05:39.405000,47,0,0,world,8,1479,0.0,0.0,0.0,0.0877359636942,0.108971946653,-0.00170534772325,0.0,0.0,0.0,0.0,0.0458467900753
1970/01/01/02:05:39.424000,48,0,0,world,8,1479,0.0,0.0,0.0,0.195795622434,-0.00944756565107,-0.00316484661327,0.0,0.0,0.0,0.0,0.0400768853724
1970/01/01/02:05:39.456000,49,0,0,world,8,1479,0.0,0.0,0.0,0.26361690814,0.0185847930695,-0.00272688184643,0.0,0.0,0.0,0.0,0.0435109622777
1970/01/01/02:05:39.505000,50,0,0,world,8,1479,0.0,0.0,0.0,0.35495197577,-0.132154518046,-0.00158581026483,0.0,0.0,0.0,0.0,0.0446633063257
1970/01/01/02:05:39.564000,51,0,0,world,8,1479,0.0,0.0,0.0,0.350425339994,-0.320123921046,0.00102473956278,0.0,0.0,0.0,0.0,0.0179849136621
1970/01/01/02:05:39.581000,52,0,0,world,8,1479,0.0,0.0,0.0,0.624687656709,-0.344176230649,0.00205544563608,0.0,0.0,0.0,0.0,0.0137520292774
1970/01/01/02:05:39.608000,53,0,0,world,8,1479,0.0,0.0,0.0,0.715307948349,-0.473810475014,0.00642675925434,0.0,0.0,0.0,0.0,-0.0113445948809
1970/01/01/02:05:39.650000,54,0,0,world,8,1479,0.0,0.0,0.0,0.854285224207,-0.600182803432,0.00693367124443,0.0,0.0,0.0,0.0,-0.0396179966629
1970/01/01/02:05:39.683000,55,0,0,world,8,1479,0.0,0.0,0.0,0.994921239003,-0.837205059049,0.0117805467844,0.0,0.0,0.0,0.0,-0.0959184840322
1970/01/01/02:05:39.735000,56,0,0,world,8,1479,0.0,0.0,0.0,1.05674692972,-0.815654851338,0.0134553839113,0.0,0.0,0.0,0.0,-0.0753435045481
1970/01/01/02:05:39.770000,57,0,0,world,8,1479,0.0,0.0,0.0,1.50318716985,-0.974053739565,0.0193010532522,0.0,0.0,0.0,0.0,-0.127592429519
1970/01/01/02:05:39.795000,58,0,0,world,8,1479,0.0,0.0,0.0,1.48209195703,-1.11847789333,0.0240771999929,0.0,0.0,0.0,0.0,-0.154538780451
1970/01/01/02:05:39.831000,59,0,0,world,8,1479,0.0,0.0,0.0,1.82842475774,-1.14564025053,0.0303181190559,0.0,0.0,0.0,0.0,-0.172516018152
1970/01/01/02:05:39.856000,60,0,0,world,8,1479,0.0,0.0,0.0,1.74208046307,-1.14331443924,0.0348816504337,0.0,0.0,0.0,0.0,-0.159834384918
1970/01/01/02:05:39.893000,61,0,0,world,8,1479,0.0,0.0,0.0,1.87135375242,-1.21407440214,0.0345685003501,0.0,0.0,0.0,0.0,-0.179363042116
1970/01/01/02:05:39.926000,62,0,0,world,8,1479,0.0,0.0,0.0,2.10811883081,-1.21112155463,0.0401306757261,0.0,0.0,0.0,0.0,-0.18914668262
1970/01/01/02:05:39.963000,63,0,0,world,8,1479,0.0,0.0,0.0,2.26988299336,-1.15983011238,0.045933795487,0.0,0.0,0.0,0.0,-0.180999517441
1970/01/01/02:05:40.012000,64,0,0,world,8,1479,0.0,0.0,0.0,2.07957233744,-1.18873526632,0.0452653567482,0.0,0.0,0.0,0.0,-0.168597072363
1970/01/01/02:05:40.022000,65,0,0,world,8,1479,0.0,0.0,0.0,2.15007762281,-1.21574010862,0.0465813520265,0.0,0.0,0.0,0.0,-0.183200582862
1970/01/01/02:05:40.090000,66,0,0,world,8,1479,0.0,0.0,0.0,2.56770179445,-1.15571907649,0.0383710360199,0.0,0.0,0.0,0.0,-0.197104722261
1970/01/01/02:05:40.125000,67,0,0,world,8,1479,0.0,0.0,0.0,2.48219583026,-1.13564858595,0.0417990163763,0.0,0.0,0.0,0.0,-0.18178640306
1970/01/01/02:05:40.138000,68,0,0,world,8,1479,0.0,0.0,0.0,2.57766170274,-1.15098615387,0.0379999335438,0.0,0.0,0.0,0.0,-0.187074899673
1970/01/01/02:05:40.157000,69,0,0,world,8,1479,0.0,0.0,0.0,2.46615316581,-1.12658928449,0.0406998130975,0.0,0.0,0.0,0.0,-0.168998524547
1970/01/01/02:05:40.190000,70,0,0,world,8,1479,0.0,0.0,0.0,2.33299964167,-1.13580263855,0.0399513172419,0.0,0.0,0.0,0.0,-0.158958107233
1970/01/01/02:05:40.488000,71,0,0,world,8,1479,0.0,0.0,0.0,2.60938355814,-0.98958867147,0.0182440190337,0.0,0.0,0.0,0.0,-0.167485520244
1970/01/01/02:05:40.535000,72,0,0,world,8,1479,0.0,0.0,0.0,2.53464924936,-0.892480590987,0.0145569826699,0.0,0.0,0.0,0.0,-0.139876976609
1970/01/01/02:05:40.563000,73,0,0,world,8,1479,0.0,0.0,0.0,2.4009890842,-0.802977881782,0.0142295603654,0.0,0.0,0.0,0.0,-0.112369246781
1970/01/01/02:05:40.590000,74,0,0,world,8,1479,0.0,0.0,0.0,2.2387850359,-0.70510207401,0.00547917639983,0.0,0.0,0.0,0.0,-0.0825381949544
1970/01/01/02:05:40.628000,75,0,0,world,8,1479,0.0,0.0,0.0,1.93145332962,-0.648987932719,-0.0021499493093,0.0,0.0,0.0,0.0,-0.0510782934725
1970/01/01/02:05:40.691000,76,0,0,world,8,1479,0.0,0.0,0.0,1.53973980648,-0.530900145451,-0.00443359810017,0.0,0.0,0.0,0.0,-0.00768112298101
1970/01/01/02:05:40.718000,77,0,0,world,8,1479,0.0,0.0,0.0,0.798195741847,-0.378453842933,-0.0109214477268,0.0,0.0,0.0,0.0,0.055356182158
1970/01/01/02:05:40.756000,78,0,0,world,8,1479,0.0,0.0,0.0,-0.0505103762886,-0.0689002830159,-0.0251334951281,0.0,0.0,0.0,0.0,0.101721890271
1970/01/01/02:05:40.786000,79,0,0,world,8,1479,0.0,0.0,0.0,-0.765860565801,-0.00947107891304,-0.0292367873088,0.0,0.0,0.0,0.0,0.0988718792796
1970/01/01/02:05:40.824000,80,0,0,world,8,1479,0.0,0.0,0.0,-0.77829752326,0.0137483711436,-0.0306519230438,0.0,0.0,0.0,0.0,0.100398048759
1970/01/01/02:05:40.859000,81,0,0,world,8,1479,0.0,0.0,0.0,-0.623380672014,-0.0885926991458,-0.0368536452611,0.0,0.0,0.0,0.0,0.0289668831974
1970/01/01/02:05:40.884000,82,0,0,world,8,1479,0.0,0.0,0.0,-0.417540754168,-0.028157336885,-0.032508826144,0.0,0.0,0.0,0.0,0.000913627096452
1970/01/01/02:05:40.937000,83,0,0,world,8,1479,0.0,0.0,0.0,0.0617740646375,-0.0329382666964,-0.0217365837912,0.0,0.0,0.0,0.0,-0.0735834240913
1970/01/01/02:05:40.964000,84,0,0,world,8,1479,0.0,0.0,0.0,0.438946262635,0.197746256949,-0.0103690959048,0.0,0.0,0.0,0.0,-0.0312687978148
1970/01/01/02:05:40.991000,85,0,0,world,8,1479,0.0,0.0,0.0,0.67000652508,0.377456624584,-0.00122234355559,0.0,0.0,0.0,0.0,0.018182521686
1970/01/01/02:05:41.040000,86,0,0,world,8,1479,0.0,0.0,0.0,0.754349860723,0.515073612207,0.00693911664316,0.0,0.0,0.0,0.0,0.0664143189788
1970/01/01/02:05:41.081000,87,0,0,world,8,1479,0.0,0.0,0.0,0.775551574156,0.57221008414,0.0134636305655,0.0,0.0,0.0,0.0,0.090508274734
1970/01/01/02:05:41.106000,88,0,0,world,8,1479,0.0,0.0,0.0,0.852570088808,0.787606971851,0.0251497673961,0.0,0.0,0.0,0.0,0.149593502283
1970/01/01/02:05:41.128000,89,0,0,world,8,1479,0.0,0.0,0.0,0.791683014682,0.739271635956,0.0206090250715,0.0,0.0,0.0,0.0,0.154782801867
1970/01/01/02:05:41.187000,90,0,0,world,8,1479,0.0,0.0,0.0,0.910579315112,0.848354323468,0.0281145508784,0.0,0.0,0.0,0.0,0.188152223825
1970/01/01/02:05:41.241000,91,0,0,world,8,1479,0.0,0.0,0.0,1.01078426254,1.10732756609,0.0379254592545,0.0,0.0,0.0,0.0,0.241702079773
1970/01/01/02:05:41.263000,92,0,0,world,8,1479,0.0,0.0,0.0,1.09235477248,1.25285752167,0.0443203418146,0.0,0.0,0.0,0.0,0.282160639763
1970/01/01/02:05:41.298000,93,0,0,world,8,1479,0.0,0.0,0.0,1.28362122623,1.5044947446,0.0554131724729,0.0,0.0,0.0,0.0,0.355200648308
1970/01/01/02:05:41.333000,94,0,0,world,8,1479,0.0,0.0,0.0,1.47731252733,1.69806768716,0.0682380262192,0.0,0.0,0.0,0.0,0.403583735228
1970/01/01/02:05:41.370000,95,0,0,world,8,1479,0.0,0.0,0.0,1.47852578085,1.64270331156,0.0803646130436,0.0,0.0,0.0,0.0,0.365867227316
1970/01/01/02:05:41.394000,96,0,0,world,8,1479,0.0,0.0,0.0,1.50669621513,1.64532470136,0.0961798108743,0.0,0.0,0.0,0.0,0.346141427755
1970/01/01/02:05:41.439000,97,0,0,world,8,1479,0.0,0.0,0.0,1.51905632825,1.63491070192,0.11083951854,0.0,0.0,0.0,0.0,0.312286496162
1970/01/01/02:05:41.471000,98,0,0,world,8,1479,0.0,0.0,0.0,1.58987362124,1.60302343549,0.130003642609,0.0,0.0,0.0,0.0,0.286109983921
1970/01/01/02:05:41.511000,99,0,0,world,8,1479,0.0,0.0,0.0,1.2849901869,1.31846231135,0.163580729094,0.0,0.0,0.0,0.0,0.121097072959
1970/01/01/02:05:41.556000,100,0,0,world,8,1479,0.0,0.0,0.0,1.18672337867,1.2875518845,0.178689260988,0.0,0.0,0.0,0.0,0.0736160948873
1970/01/01/02:05:41.591000,101,0,0,world,8,1479,0.0,0.0,0.0,0.918690417435,1.057713205,0.194528352837,0.0,0.0,0.0,0.0,-0.040542781353
1970/01/01/02:05:41.604000,102,0,0,world,8,1479,0.0,0.0,0.0,0.886309345326,1.03654351938,0.191427614146,0.0,0.0,0.0,0.0,-0.0453647784889
1970/01/01/02:05:41.621000,103,0,0,world,8,1479,0.0,0.0,0.0,0.848760664763,0.941581285851,0.204289280064,0.0,0.0,0.0,0.0,-0.0943369120359
1970/01/01/02:05:41.632000,104,0,0,world,8,1479,0.0,0.0,0.0,0.968336132537,0.965829127184,0.193343750871,0.0,0.0,0.0,0.0,-0.0700726881623
1970/01/01/02:05:41.663000,105,0,0,world,8,1479,0.0,0.0,0.0,0.97418169259,0.837384420063,0.217639770244,0.0,0.0,0.0,0.0,-0.104866594076
1970/01/01/02:05:41.695000,106,0,0,world,8,1479,0.0,0.0,0.0,0.693219875968,0.704966888352,0.232109475163,0.0,0.0,0.0,0.0,-0.191733017564
1970/01/01/02:05:41.707000,107,0,0,world,8,1479,0.0,0.0,0.0,0.82891551562,0.687491098678,0.238252281684,0.0,0.0,0.0,0.0,-0.182775422931
1970/01/01/02:05:41.751000,108,0,0,world,8,1479,0.0,0.0,0.0,1.40495065585,0.875673802655,0.246446580099,0.0,0.0,0.0,0.0,-0.043641295284
1970/01/01/02:05:41.765000,109,0,0,world,8,1479,0.0,0.0,0.0,1.57554632222,0.812227641347,0.249747666309,0.0,0.0,0.0,0.0,-0.0245844461024
1970/01/01/02:05:41.778000,110,0,0,world,8,1479,0.0,0.0,0.0,1.9990928046,0.908768686482,0.255353369341,0.0,0.0,0.0,0.0,0.0700523629785
1970/01/01/02:05:41.817000,111,0,0,world,8,1479,0.0,0.0,0.0,2.20330908057,1.15154677315,0.235646455384,0.0,0.0,0.0,0.0,0.164594843984
1970/01/01/02:05:41.877000,112,0,0,world,8,1479,0.0,0.0,0.0,1.46996933755,1.08467763518,0.200526954642,0.0,0.0,0.0,0.0,0.0472747460008
1970/01/01/02:05:41.941000,113,0,0,world,8,1479,0.0,0.0,0.0,0.685477016665,0.823435968506,0.174083814001,0.0,0.0,0.0,0.0,-0.136974319816
1970/01/01/02:05:41.973000,114,0,0,world,8,1479,0.0,0.0,0.0,-0.138489606113,0.496998703401,0.166971295479,0.0,0.0,0.0,0.0,-0.344727367163
1970/01/01/02:05:42.013000,115,0,0,world,8,1479,0.0,0.0,0.0,-1.02497709681,0.104623028915,0.169646262837,0.0,0.0,0.0,0.0,-0.572388827801
1970/01/01/02:05:42.041000,116,0,0,world,8,1479,0.0,0.0,0.0,-1.22056472799,0.0334481948958,0.170193798062,0.0,0.0,0.0,0.0,-0.62021458149
1970/01/01/02:05:42.075000,117,0,0,world,8,1479,0.0,0.0,0.0,-1.04292168866,0.141143926491,0.159729500253,0.0,0.0,0.0,0.0,-0.559398472309
1970/01/01/02:05:42.095000,118,0,0,world,8,1479,0.0,0.0,0.0,-0.731491635234,0.221534223971,0.153617128993,0.0,0.0,0.0,0.0,-0.476786881685
1970/01/01/02:05:42.126000,119,0,0,world,8,1479,0.0,0.0,0.0,-0.127150839545,0.442972581915,0.148338348489,0.0,0.0,0.0,0.0,-0.320169150829
1970/01/01/02:05:42.190000,120,0,0,world,8,1479,0.0,0.0,0.0,0.517399655682,0.639223848175,0.123637668708,0.0,0.0,0.0,0.0,-0.129370108247
1970/01/01/02:05:42.212000,121,0,0,world,8,1479,0.0,0.0,0.0,1.09465483627,0.812010338413,0.11145093322,0.0,0.0,0.0,0.0,0.0169235747308
1970/01/01/02:05:42.237000,122,0,0,world,8,1479,0.0,0.0,0.0,1.4407109196,1.04336876795,0.0892207829568,0.0,0.0,0.0,0.0,0.161396384239
1970/01/01/02:05:42.290000,123,0,0,world,8,1479,0.0,0.0,0.0,1.62708275159,1.0450336912,0.0769199600869,0.0,0.0,0.0,0.0,0.217280969024
1970/01/01/02:05:42.310000,124,0,0,world,8,1479,0.0,0.0,0.0,1.60993937286,0.970493339021,0.0528414177034,0.0,0.0,0.0,0.0,0.222160682082
1970/01/01/02:05:42.348000,125,0,0,world,8,1479,0.0,0.0,0.0,1.27641942821,0.729176032833,0.0368084751751,0.0,0.0,0.0,0.0,0.145741119981
1970/01/01/02:05:42.372000,126,0,0,world,8,1479,0.0,0.0,0.0,1.02718603312,0.424746103704,0.0360666951972,0.0,0.0,0.0,0.0,0.0406998991966
1970/01/01/02:05:42.380000,127,0,0,world,8,1479,0.0,0.0,0.0,0.797720444282,0.331543215658,0.0285473957244,0.0,0.0,0.0,0.0,-0.00412325235084
1970/01/01/02:05:42.393000,128,0,0,world,8,1479,0.0,0.0,0.0,0.809323637577,0.350931718747,0.0313360584407,0.0,0.0,0.0,0.0,0.000589309318457
1970/01/01/02:05:42.420000,129,0,0,world,8,1479,0.0,0.0,0.0,0.565703032402,0.173630760996,0.0317315458824,0.0,0.0,0.0,0.0,-0.0777856111526
1970/01/01/02:05:42.470000,130,0,0,world,8,1479,0.0,0.0,0.0,0.395656407721,0.0474205543907,0.0302565548491,0.0,0.0,0.0,0.0,-0.127373963594
1970/01/01/02:05:42.497000,131,0,0,world,8,1479,0.0,0.0,0.0,0.265751407049,-0.0647091596303,0.0251220229233,0.0,0.0,0.0,0.0,-0.144798785448
1970/01/01/02:05:42.541000,132,0,0,world,8,1479,0.0,0.0,0.0,0.380149126865,-0.0542876800149,0.015806015213,0.0,0.0,0.0,0.0,-0.107610344887
1970/01/01/02:05:42.566000,133,0,0,world,8,1479,0.0,0.0,0.0,0.456668830674,0.0821720902156,0.0034506049628,0.0,0.0,0.0,0.0,-0.0225132256746
1970/01/01/02:05:42.597000,134,0,0,world,8,1479,0.0,0.0,0.0,0.516692948293,0.097633452644,0.00824454608883,0.0,0.0,0.0,0.0,-0.0143162244931
1970/01/01/02:05:42.632000,135,0,0,world,8,1479,0.0,0.0,0.0,0.718679106467,0.193455450426,-0.0119614483823,0.0,0.0,0.0,0.0,0.0949835255742
1970/01/01/02:05:42.659000,136,0,0,world,8,1479,0.0,0.0,0.0,0.674154819182,0.219114081172,-0.00650213109676,0.0,0.0,0.0,0.0,0.10297498852
1970/01/01/02:05:42.706000,137,0,0,world,8,1479,0.0,0.0,0.0,0.714533106962,0.106046544564,-0.0193495858269,0.0,0.0,0.0,0.0,0.149825900793
1970/01/01/02:05:42.723000,138,0,0,world,8,1479,0.0,0.0,0.0,0.650179981617,0.0555726755751,-0.0161102236446,0.0,0.0,0.0,0.0,0.134187176824
1970/01/01/02:05:42.762000,139,0,0,world,8,1479,0.0,0.0,0.0,0.64147006822,0.0427336818529,-0.0204579510475,0.0,0.0,0.0,0.0,0.155245900154
1970/01/01/02:05:42.806000,140,0,0,world,8,1479,0.0,0.0,0.0,0.516782885135,-0.205377877857,-0.0196711551064,0.0,0.0,0.0,0.0,0.139482945204
1970/01/01/02:05:42.839000,141,0,0,world,8,1479,0.0,0.0,0.0,0.56026111335,-0.194371119937,-0.0173981132048,0.0,0.0,0.0,0.0,0.163783863187
1970/01/01/02:05:42.872000,142,0,0,world,8,1479,0.0,0.0,0.0,0.467653955199,-0.222831005634,-0.0128400854001,0.0,0.0,0.0,0.0,0.174270376563
1970/01/01/02:05:42.895000,143,0,0,world,8,1479,0.0,0.0,0.0,0.484004966199,-0.161192028339,-0.0058797375404,0.0,0.0,0.0,0.0,0.207738906145
1970/01/01/02:05:42.932000,144,0,0,world,8,1479,0.0,0.0,0.0,0.458758853021,-0.271087848094,0.000722373657788,0.0,0.0,0.0,0.0,0.195543795824
1970/01/01/02:05:42.969000,145,0,0,world,8,1479,0.0,0.0,0.0,0.408821340288,-0.325916376524,0.00359884705514,0.0,0.0,0.0,0.0,0.197003617883
1970/01/01/02:05:43.001000,146,0,0,world,8,1479,0.0,0.0,0.0,0.379013144419,-0.29166383203,0.0139398051995,0.0,0.0,0.0,0.0,0.212409287691
1970/01/01/02:05:43.021000,147,0,0,world,8,1479,0.0,0.0,0.0,0.302586898532,-0.287586941301,0.0176496369449,0.0,0.0,0.0,0.0,0.231955707073
1970/01/01/02:05:43.067000,148,0,0,world,8,1479,0.0,0.0,0.0,0.232043499772,-0.327951494163,0.01786003941,0.0,0.0,0.0,0.0,0.224322423339
1970/01/01/02:05:43.089000,149,0,0,world,8,1479,0.0,0.0,0.0,0.20482338648,-0.297035570294,0.0164618327088,0.0,0.0,0.0,0.0,0.237637117505
1970/01/01/02:05:43.134000,150,0,0,world,8,1479,0.0,0.0,0.0,0.157220249657,-0.328374496693,0.0164721549402,0.0,0.0,0.0,0.0,0.234459042549
1970/01/01/02:05:43.157000,151,0,0,world,8,1479,0.0,0.0,0.0,0.095808308278,-0.356526169222,0.0112804389129,0.0,0.0,0.0,0.0,0.225496500731
1970/01/01/02:05:43.212000,152,0,0,world,8,1479,0.0,0.0,0.0,0.0577912115343,-0.317340621204,0.00518181731441,0.0,0.0,0.0,0.0,0.233421072364
1970/01/01/02:05:43.247000,153,0,0,world,8,1479,0.0,0.0,0.0,0.020795453926,-0.3039246462,0.000276008652345,0.0,0.0,0.0,0.0,0.232067197561
1970/01/01/02:05:43.276000,154,0,0,world,8,1479,0.0,0.0,0.0,0.000617624672779,-0.288422029776,-0.00599557802189,0.0,0.0,0.0,0.0,0.22904843092
1970/01/01/02:05:43.315000,155,0,0,world,8,1479,0.0,0.0,0.0,-0.0192979145832,-0.323930069851,-0.0129524133267,0.0,0.0,0.0,0.0,0.211729571223
1970/01/01/02:05:43.347000,156,0,0,world,8,1479,0.0,0.0,0.0,0.0105266662983,-0.292639457267,-0.0171683734846,0.0,0.0,0.0,0.0,0.201901450753
1970/01/01/02:05:43.372000,157,0,0,world,8,1479,0.0,0.0,0.0,0.000961491035425,-0.29896083965,-0.0191834611006,0.0,0.0,0.0,0.0,0.180520564318
1970/01/01/02:05:43.408000,158,0,0,world,8,1479,0.0,0.0,0.0,0.0133879702198,-0.184508363136,-0.0242373104876,0.0,0.0,0.0,0.0,0.195456624031
1970/01/01/02:05:43.442000,159,0,0,world,8,1479,0.0,0.0,0.0,0.0352474292943,-0.149372565968,-0.0237206604484,0.0,0.0,0.0,0.0,0.189704909921
1970/01/01/02:05:43.462000,160,0,0,world,8,1479,0.0,0.0,0.0,0.0322576550493,-0.123590274635,-0.0242835647221,0.0,0.0,0.0,0.0,0.184058755636
1970/01/01/02:05:43.510000,161,0,0,world,8,1479,0.0,0.0,0.0,0.0595694244568,-0.0573021073131,-0.0207562288466,0.0,0.0,0.0,0.0,0.181879997253
1970/01/01/02:05:43.537000,162,0,0,world,8,1479,0.0,0.0,0.0,0.0706018810562,0.0078061821064,-0.0166635974671,0.0,0.0,0.0,0.0,0.177288174629
1970/01/01/02:05:43.549000,163,0,0,world,8,1479,0.0,0.0,0.0,0.0452660453189,0.104823928162,-0.0146628391277,0.0,0.0,0.0,0.0,0.176739320159
1970/01/01/02:05:43.588000,164,0,0,world,8,1479,0.0,0.0,0.0,0.0404951302144,0.0972292804515,-0.00712357939405,0.0,0.0,0.0,0.0,0.146118849516
1970/01/01/02:05:43.619000,165,0,0,world,8,1479,0.0,0.0,0.0,0.0284000469492,0.205833081266,-0.00398290170551,0.0,0.0,0.0,0.0,0.144280403852
1970/01/01/02:05:43.668000,166,0,0,world,8,1479,0.0,0.0,0.0,0.00395842834652,0.148227644787,0.0046487374268,0.0,0.0,0.0,0.0,0.0859709605575
1970/01/01/02:05:43.721000,167,0,0,world,8,1479,0.0,0.0,0.0,-0.010116624361,0.252353778578,0.00599130772481,0.0,0.0,0.0,0.0,0.0748187378049
1970/01/01/02:05:43.751000,168,0,0,world,8,1479,0.0,0.0,0.0,-0.033134278963,0.392940445359,0.00802326457178,0.0,0.0,0.0,0.0,0.0771708115935
1970/01/01/02:05:43.790000,169,0,0,world,8,1479,0.0,0.0,0.0,-0.0768845047825,0.410783352504,0.00804355517779,0.0,0.0,0.0,0.0,0.0228391457349
1970/01/01/02:05:43.808000,170,0,0,world,8,1479,0.0,0.0,0.0,-0.065002440371,0.456151701232,0.00807051826446,0.0,0.0,0.0,0.0,0.0365072861314
1970/01/01/02:05:43.862000,171,0,0,world,8,1479,0.0,0.0,0.0,-0.0902088940502,0.571667063372,0.00824149927328,0.0,0.0,0.0,0.0,0.0227162465453
1970/01/01/02:05:43.870000,172,0,0,world,8,1479,0.0,0.0,0.0,-0.0680192909004,0.610540727598,0.00673831901238,0.0,0.0,0.0,0.0,0.0344999097288
1970/01/01/02:05:43.899000,173,0,0,world,8,1479,0.0,0.0,0.0,-0.069369330609,0.665141265843,0.00199699695989,0.0,0.0,0.0,0.0,0.0143447332084
1970/01/01/02:05:43.931000,174,0,0,world,8,1479,0.0,0.0,0.0,-0.0922615181,0.712669450596,0.00165715983773,0.0,0.0,0.0,0.0,-0.00151970866136
1970/01/01/02:05:43.978000,175,0,0,world,8,1479,0.0,0.0,0.0,-0.115191379271,0.737245222478,0.010306327592,0.0,0.0,0.0,0.0,-0.0174140483141
1970/01/01/02:05:43.997000,176,0,0,world,8,1479,0.0,0.0,0.0,-0.0648989021392,0.938854359,0.00911352537107,0.0,0.0,0.0,0.0,0.00591201428324
1970/01/01/02:05:44.038000,177,0,0,world,8,1479,0.0,0.0,0.0,-0.101972292827,0.977892358526,0.0112180623548,0.0,0.0,0.0,0.0,-0.0169181227684
1970/01/01/02:05:44.081000,178,0,0,world,8,1479,0.0,0.0,0.0,-0.205354590912,0.936689765159,0.00279267928184,0.0,0.0,0.0,0.0,-0.10340179503
1970/01/01/02:05:44.123000,179,0,0,world,8,1479,0.0,0.0,0.0,-0.150674306156,0.930676695472,0.00712542138141,0.0,0.0,0.0,0.0,-0.126269668341
1970/01/01/02:05:44.163000,180,0,0,world,8,1479,0.0,0.0,0.0,-0.240356547759,0.946859940446,0.00698256110966,0.0,0.0,0.0,0.0,-0.157102003694
1970/01/01/02:05:44.194000,181,0,0,world,8,1479,0.0,0.0,0.0,-0.291008026894,0.955799893272,0.00713309632391,0.0,0.0,0.0,0.0,-0.17683917284
1970/01/01/02:05:44.209000,182,0,0,world,8,1479,0.0,0.0,0.0,-0.301402253396,0.963019061563,0.00714408955231,0.0,0.0,0.0,0.0,-0.177599281073
1970/01/01/02:05:44.239000,183,0,0,world,8,1479,0.0,0.0,0.0,-0.515720065801,0.692248068802,0.0247775497554,0.0,0.0,0.0,0.0,-0.276863396168
1970/01/01/02:05:44.281000,184,0,0,world,8,1479,0.0,0.0,0.0,-0.459476590802,0.766276745892,0.0283201468264,0.0,0.0,0.0,0.0,-0.248813077807
1970/01/01/02:05:44.307000,185,0,0,world,8,1479,0.0,0.0,0.0,-0.369392919928,0.92990656834,0.0338128944924,0.0,0.0,0.0,0.0,-0.183851644397
1970/01/01/02:05:44.325000,186,0,0,world,8,1479,0.0,0.0,0.0,-0.411968571744,0.776892514051,0.0277728736244,0.0,0.0,0.0,0.0,-0.215463876724
1970/01/01/02:05:44.383000,187,0,0,world,8,1479,0.0,0.0,0.0,-0.276714860796,0.954903081922,0.0291659737279,0.0,0.0,0.0,0.0,-0.13510915637
1970/01/01/02:05:44.397000,188,0,0,world,8,1479,0.0,0.0,0.0,-0.217672245611,0.931556983611,0.0329781778313,0.0,0.0,0.0,0.0,-0.0975279062986
1970/01/01/02:05:44.442000,189,0,0,world,8,1479,0.0,0.0,0.0,-0.249622613516,0.715280513137,0.0280457597421,0.0,0.0,0.0,0.0,-0.120006628335
1970/01/01/02:05:44.482000,190,0,0,world,8,1479,0.0,0.0,0.0,-0.190869531477,0.671999432106,0.0250985800586,0.0,0.0,0.0,0.0,-0.0627506896853
1970/01/01/02:05:44.507000,191,0,0,world,8,1479,0.0,0.0,0.0,-0.231681330378,0.611092605088,0.0223947198893,0.0,0.0,0.0,0.0,-0.0823892354965
1970/01/01/02:05:44.541000,192,0,0,world,8,1479,0.0,0.0,0.0,-0.28157374097,0.463467491523,0.0213037687499,0.0,0.0,0.0,0.0,-0.104645587504
1970/01/01/02:05:44.568000,193,0,0,world,8,1479,0.0,0.0,0.0,-0.244637940599,0.469482354737,0.0151341022348,0.0,0.0,0.0,0.0,-0.0816766172647
1970/01/01/02:05:44.610000,194,0,0,world,8,1479,0.0,0.0,0.0,-0.215583957403,0.557987407447,0.00520123096613,0.0,0.0,0.0,0.0,-0.0212027262896
1970/01/01/02:05:44.651000,195,0,0,world,8,1479,0.0,0.0,0.0,-0.14795244389,0.569925397757,-0.00387351017834,0.0,0.0,0.0,0.0,0.061678186059
1970/01/01/02:05:44.673000,196,0,0,world,8,1479,0.0,0.0,0.0,-0.141480504161,0.479939304372,-0.00406680974675,0.0,0.0,0.0,0.0,0.0332085937262
1970/01/01/02:05:44.691000,197,0,0,world,8,1479,0.0,0.0,0.0,-0.0913421462524,0.487178853153,-0.00643454134983,0.0,0.0,0.0,0.0,0.0831145569682
1970/01/01/02:05:44.737000,198,0,0,world,8,1479,0.0,0.0,0.0,-0.04608983791,0.486099517044,-0.00768395283,0.0,0.0,0.0,0.0,0.110295392573
1970/01/01/02:05:44.755000,199,0,0,world,8,1479,0.0,0.0,0.0,-0.0494588797344,0.364259938358,-0.0104306869058,0.0,0.0,0.0,0.0,0.0936883538961
1970/01/01/02:05:44.795000,200,0,0,world,8,1479,0.0,0.0,0.0,-0.0129612307566,0.346816549338,-0.00980383176841,0.0,0.0,0.0,0.0,0.103551410139
1970/01/01/02:05:44.816000,201,0,0,world,8,1479,0.0,0.0,0.0,-0.00676331365394,0.283978930618,-0.0106867938379,0.0,0.0,0.0,0.0,0.0972176715732
1970/01/01/02:05:44.883000,202,0,0,world,8,1479,0.0,0.0,0.0,-0.0148471648033,0.0990073123237,-0.0145509000895,0.0,0.0,0.0,0.0,0.078286729753
1970/01/01/02:05:44.913000,203,0,0,world,8,1479,0.0,0.0,0.0,-0.00700293505129,0.00856073109527,-0.00670237962584,0.0,0.0,0.0,0.0,0.073876067996
1970/01/01/02:05:44.943000,204,0,0,world,8,1479,0.0,0.0,0.0,0.163641799243,-0.141031003723,-0.00997162085298,0.0,0.0,0.0,0.0,0.0465075224638
1970/01/01/02:05:44.998000,205,0,0,world,8,1479,0.0,0.0,0.0,0.155045573465,-0.251875819005,-0.003088306778,0.0,0.0,0.0,0.0,0.0355488657951
1970/01/01/02:05:45.017000,206,0,0,world,8,1479,0.0,0.0,0.0,0.251141105695,-0.347982622517,0.00106640498011,0.0,0.0,0.0,0.0,0.0346375741065
1970/01/01/02:05:45.056000,207,0,0,world,8,1479,0.0,0.0,0.0,0.217531473508,-0.389048316423,-0.00223822972555,0.0,0.0,0.0,0.0,0.023890664801
1970/01/01/02:05:45.062000,208,0,0,world,8,1479,0.0,0.0,0.0,0.243979543854,-0.460898862166,0.004822372351,0.0,0.0,0.0,0.0,0.0237633287907
1970/01/01/02:05:45.104000,209,0,0,world,8,1479,0.0,0.0,0.0,0.361137056776,-0.66146613471,0.0142061180002,0.0,0.0,0.0,0.0,0.00980316381902
1970/01/01/02:05:45.174000,210,0,0,world,8,1479,0.0,0.0,0.0,0.807565136611,-0.930864912119,0.0252294138649,0.0,0.0,0.0,0.0,-0.0354568772018
1970/01/01/02:05:45.200000,211,0,0,world,8,1479,0.0,0.0,0.0,0.800881245427,-1.02651783396,0.0282210903245,0.0,0.0,0.0,0.0,-0.0691964402795
1970/01/01/02:05:45.248000,212,0,0,world,8,1479,0.0,0.0,0.0,1.16308745084,-1.28692548917,0.0401129029826,0.0,0.0,0.0,0.0,-0.117774136364
1970/01/01/02:05:45.289000,213,0,0,world,8,1479,0.0,0.0,0.0,1.43018808555,-1.34440595804,0.0471786387047,0.0,0.0,0.0,0.0,-0.146166533232
1970/01/01/02:05:45.332000,214,0,0,world,8,1479,0.0,0.0,0.0,1.57950758339,-1.36992081267,0.0567469136997,0.0,0.0,0.0,0.0,-0.138561934233
1970/01/01/02:05:45.361000,215,0,0,world,8,1479,0.0,0.0,0.0,1.5991770552,-1.43403357294,0.053859504837,0.0,0.0,0.0,0.0,-0.154959335923
1970/01/01/02:05:45.408000,216,0,0,world,8,1479,0.0,0.0,0.0,26.1041041481,-41.0093687589,0.0420484578773,0.0,0.0,0.0,0.0,-10.7615880966
1970/01/01/02:05:45.412000,217,0,0,world,8,1479,0.0,0.0,0.0,2.03895352924,-1.53372422473,0.0658345946892,0.0,0.0,0.0,0.0,-0.209835335612
1970/01/01/02:05:45.443000,218,0,0,world,8,1479,0.0,0.0,0.0,2.14864548514,-1.60137981648,0.0645220172395,0.0,0.0,0.0,0.0,-0.226828336716
1970/01/01/02:05:45.464000,219,0,0,world,8,1479,0.0,0.0,0.0,1.89843108075,-1.4611711024,0.0606633372151,0.0,0.0,0.0,0.0,-0.186810106039
1970/01/01/02:05:45.950000,220,0,0,world,8,1479,0.0,0.0,0.0,3.19979522807,-1.31774399747,0.0282711434072,0.0,0.0,0.0,0.0,-0.300511330366
1970/01/01/02:05:46.033000,221,0,0,world,8,1479,0.0,0.0,0.0,2.33170054095,-0.993300700071,0.0111366918354,0.0,0.0,0.0,0.0,-0.165273025632
1970/01/01/02:05:46.066000,222,0,0,world,8,1479,0.0,0.0,0.0,2.08162639733,-0.834721132031,0.00203946291644,0.0,0.0,0.0,0.0,-0.111049219966
1970/01/01/02:05:46.110000,223,0,0,world,8,1479,0.0,0.0,0.0,1.88371811153,-0.615042602085,-0.0126589700417,0.0,0.0,0.0,0.0,-0.0522287972271
1970/01/01/02:05:46.180000,224,0,0,world,8,1479,0.0,0.0,0.0,0.41131870519,0.217998939802,-0.0437478531384,0.0,0.0,0.0,0.0,0.209476530552
1970/01/01/02:05:46.201000,225,0,0,world,8,1479,0.0,0.0,0.0,-0.123474941442,0.318137600652,-0.0493298956437,0.0,0.0,0.0,0.0,0.240236610174
1970/01/01/02:05:46.230000,226,0,0,world,8,1479,0.0,0.0,0.0,-0.112690087025,0.36811628171,-0.0706193879467,0.0,0.0,0.0,0.0,0.200528502464
1970/01/01/02:05:46.278000,227,0,0,world,8,1479,0.0,0.0,0.0,-0.276683568886,0.0245706128307,-0.0767250044653,0.0,0.0,0.0,0.0,0.0708214864135
1970/01/01/02:05:46.300000,228,0,0,world,8,1479,0.0,0.0,0.0,-0.145093113479,0.0917504133566,-0.0719966089479,0.0,0.0,0.0,0.0,0.024303458631
1970/01/01/02:05:46.338000,229,0,0,world,8,1479,0.0,0.0,0.0,0.203850131667,0.0222813691923,-0.0594980631296,0.0,0.0,0.0,0.0,-0.0391751527786
1970/01/01/02:05:46.353000,230,0,0,world,8,1479,0.0,0.0,0.0,0.521593006991,0.188995892174,-0.0581274206578,0.0,0.0,0.0,0.0,0.0134523799643
1970/01/01/02:05:46.366000,231,0,0,world,8,1479,0.0,0.0,0.0,1.04689106403,0.524202277653,-0.0349018998746,0.0,0.0,0.0,0.0,0.0959520116448
1970/01/01/02:05:46.407000,232,0,0,world,8,1479,0.0,0.0,0.0,1.59398425612,0.650869692794,-0.00881432061493,0.0,0.0,0.0,0.0,0.127795338631
1970/01/01/02:05:46.448000,233,0,0,world,8,1479,0.0,0.0,0.0,2.27954259205,0.976993849112,0.0199782983399,0.0,0.0,0.0,0.0,0.281558990479
1970/01/01/02:05:46.497000,234,0,0,world,8,1479,0.0,0.0,0.0,3.03297112385,1.60750167872,0.0408582607158,0.0,0.0,0.0,0.0,0.466586261988
1970/01/01/02:05:46.541000,235,0,0,world,8,1479,0.0,0.0,0.0,3.34695659626,1.8832089418,0.0537578341242,0.0,0.0,0.0,0.0,0.619864284992
1970/01/01/02:05:46.563000,236,0,0,world,8,1479,0.0,0.0,0.0,3.23635553233,1.81881623177,0.0551190287452,0.0,0.0,0.0,0.0,0.61403220892
1970/01/01/02:05:46.606000,237,0,0,world,8,1479,0.0,0.0,0.0,3.58969150529,1.99717231094,0.0732987720383,0.0,0.0,0.0,0.0,0.688685953617
1970/01/01/02:05:46.636000,238,0,0,world,8,1479,0.0,0.0,0.0,3.36484257118,1.72869232135,0.0835689198453,0.0,0.0,0.0,0.0,0.596621334553
1970/01/01/02:05:46.646000,239,0,0,world,8,1479,0.0,0.0,0.0,3.17658739676,1.53551835313,0.0804950775937,0.0,0.0,0.0,0.0,0.548381388187
1970/01/01/02:05:46.665000,240,0,0,world,8,1479,0.0,0.0,0.0,3.03889366882,1.24085660504,0.0996249153997,0.0,0.0,0.0,0.0,0.443725287914
1970/01/01/02:05:46.688000,241,0,0,world,8,1479,0.0,0.0,0.0,3.03192120023,1.08752943069,0.113332472421,0.0,0.0,0.0,0.0,0.395837932825
1970/01/01/02:05:46.716000,242,0,0,world,8,1479,0.0,0.0,0.0,2.5407997074,0.919138762146,0.0956675313852,0.0,0.0,0.0,0.0,0.302585452795
1970/01/01/02:05:46.757000,243,0,0,world,8,1479,0.0,0.0,0.0,1.84208882883,0.60366986323,0.132160985171,0.0,0.0,0.0,0.0,0.0880498886108
1970/01/01/02:05:46.791000,244,0,0,world,8,1479,0.0,0.0,0.0,1.60629784162,0.380783754452,0.151146554751,0.0,0.0,0.0,0.0,-0.0123614137992
1970/01/01/02:05:46.811000,245,0,0,world,8,1479,0.0,0.0,0.0,1.34499242348,0.281177966289,0.143207832702,0.0,0.0,0.0,0.0,-0.0779596418142
1970/01/01/02:05:46.840000,246,0,0,world,8,1479,0.0,0.0,0.0,1.22706273709,0.0220936824971,0.171803121636,0.0,0.0,0.0,0.0,-0.166611000896
1970/01/01/02:05:46.860000,247,0,0,world,8,1479,0.0,0.0,0.0,1.67967942256,0.141357665316,0.17683112502,0.0,0.0,0.0,0.0,-0.0809833928943
1970/01/01/02:05:46.895000,248,0,0,world,8,1479,0.0,0.0,0.0,1.95209258689,-0.00449636175873,0.19231038788,0.0,0.0,0.0,0.0,-0.0716156512499
1970/01/01/02:05:46.945000,249,0,0,world,8,1479,0.0,0.0,0.0,2.16843569593,0.231781746584,0.183961207826,0.0,0.0,0.0,0.0,0.0170289706439
1970/01/01/02:05:46.955000,250,0,0,world,8,1479,0.0,0.0,0.0,2.71901953698,0.277167192443,0.178061898368,0.0,0.0,0.0,0.0,0.127601116896
1970/01/01/02:05:47.015000,251,0,0,world,8,1479,0.0,0.0,0.0,3.24312724325,0.563127562081,0.155545634145,0.0,0.0,0.0,0.0,0.289086043835
1970/01/01/02:05:47.041000,252,0,0,world,8,1479,0.0,0.0,0.0,3.29007243579,0.475939399861,0.1550309773,0.0,0.0,0.0,0.0,0.279588937759
1970/01/01/02:05:47.072000,253,0,0,world,8,1479,0.0,0.0,0.0,2.60034183904,0.37812605223,0.139102117511,0.0,0.0,0.0,0.0,0.173171788454
1970/01/01/02:05:47.109000,254,0,0,world,8,1479,0.0,0.0,0.0,2.06306046223,0.227201344886,0.127156038083,0.0,0.0,0.0,0.0,0.0487726740539
1970/01/01/02:05:47.128000,255,0,0,world,8,1479,0.0,0.0,0.0,1.53134868323,0.0327923362889,0.122525213807,0.0,0.0,0.0,0.0,-0.095902889967
1970/01/01/02:05:47.162000,256,0,0,world,8,1479,0.0,0.0,0.0,0.564236822889,-0.167694085581,0.114627880036,0.0,0.0,0.0,0.0,-0.282633274794
1970/01/01/02:05:47.200000,257,0,0,world,8,1479,0.0,0.0,0.0,0.279274859094,-0.276180935047,0.114541101045,0.0,0.0,0.0,0.0,-0.360769808292
1970/01/01/02:05:47.229000,258,0,0,world,8,1479,0.0,0.0,0.0,0.146645985732,-0.442787819241,0.118408865562,0.0,0.0,0.0,0.0,-0.436276197433
1970/01/01/02:05:47.272000,259,0,0,world,8,1479,0.0,0.0,0.0,0.743992305563,-0.195373465484,0.111928705878,0.0,0.0,0.0,0.0,-0.288402497768
1970/01/01/02:05:47.309000,260,0,0,world,8,1479,0.0,0.0,0.0,0.986169445948,0.0323438241897,0.103553034376,0.0,0.0,0.0,0.0,-0.172688826919
1970/01/01/02:05:47.354000,261,0,0,world,8,1479,0.0,0.0,0.0,1.80421102069,0.401822686854,0.0862450434167,0.0,0.0,0.0,0.0,0.0719910562038
1970/01/01/02:05:47.372000,262,0,0,world,8,1479,0.0,0.0,0.0,2.16302378212,0.468982295389,0.0818275380589,0.0,0.0,0.0,0.0,0.138404652476
1970/01/01/02:05:47.398000,263,0,0,world,8,1479,0.0,0.0,0.0,2.48552551016,0.585821718601,0.0774069403019,0.0,0.0,0.0,0.0,0.228923454881
1970/01/01/02:05:47.430000,264,0,0,world,8,1479,0.0,0.0,0.0,2.27051537373,0.957280588356,0.0595146473924,0.0,0.0,0.0,0.0,0.325696706772
1970/01/01/02:05:47.475000,265,0,0,world,8,1479,0.0,0.0,0.0,2.03147754575,0.830195825694,0.0600894988332,0.0,0.0,0.0,0.0,0.256404161453
1970/01/01/02:05:47.500000,266,0,0,world,8,1479,0.0,0.0,0.0,2.33460666633,0.948318134603,0.0553322846012,0.0,0.0,0.0,0.0,0.302363961935
1970/01/01/02:05:47.540000,267,0,0,world,8,1479,0.0,0.0,0.0,1.99279230932,0.81543292211,0.0614577142747,0.0,0.0,0.0,0.0,0.193072497845
1970/01/01/02:05:47.564000,268,0,0,world,8,1479,0.0,0.0,0.0,1.88037663639,0.685668800524,0.0651229782367,0.0,0.0,0.0,0.0,0.112164229155
1970/01/01/02:05:47.594000,269,0,0,world,8,1479,0.0,0.0,0.0,1.15513039487,0.61936581989,0.074944657126,0.0,0.0,0.0,0.0,-0.00134205515496
1970/01/01/02:05:47.630000,270,0,0,world,8,1479,0.0,0.0,0.0,0.929221038701,0.48401314759,0.0855641748112,0.0,0.0,0.0,0.0,-0.10573694855
1970/01/01/02:05:47.672000,271,0,0,world,8,1479,0.0,0.0,0.0,0.841265052923,0.428857509445,0.0966875136772,0.0,0.0,0.0,0.0,-0.153504744172
1970/01/01/02:05:47.707000,272,0,0,world,8,1479,0.0,0.0,0.0,0.899671466434,0.496961464095,0.101029281899,0.0,0.0,0.0,0.0,-0.146620646119
1970/01/01/02:05:47.754000,273,0,0,world,8,1479,0.0,0.0,0.0,1.14198937754,0.524674778985,0.107309555483,0.0,0.0,0.0,0.0,-0.117947295308
1970/01/01/02:05:47.795000,274,0,0,world,8,1479,0.0,0.0,0.0,1.34541755231,0.698839492498,0.109148507362,0.0,0.0,0.0,0.0,-0.0275048967451
1970/01/01/02:05:47.803000,275,0,0,world,8,1479,0.0,0.0,0.0,1.3290426729,0.647771559468,0.112945604339,0.0,0.0,0.0,0.0,-0.0587764009833
1970/01/01/02:05:47.844000,276,0,0,world,8,1479,0.0,0.0,0.0,1.89813957086,0.989166280539,0.110956632632,0.0,0.0,0.0,0.0,0.0719395801425
1970/01/01/02:05:47.889000,277,0,0,world,8,1479,0.0,0.0,0.0,1.58962693596,1.15264345805,0.0972324024021,0.0,0.0,0.0,0.0,0.120530873537
1970/01/01/02:05:47.929000,278,0,0,world,8,1479,0.0,0.0,0.0,1.68201047462,1.29875695919,0.0973285231168,0.0,0.0,0.0,0.0,0.149516567588
1970/01/01/02:05:47.949000,279,0,0,world,8,1479,0.0,0.0,0.0,1.50997467477,1.34052949437,0.0969529233243,0.0,0.0,0.0,0.0,0.152596756816
1970/01/01/02:05:47.986000,280,0,0,world,8,1479,0.0,0.0,0.0,1.03072349663,1.14057997672,0.101340847978,0.0,0.0,0.0,0.0,0.0243941452354
1970/01/01/02:05:48.025000,281,0,0,world,8,1479,0.0,0.0,0.0,0.28078982094,0.874667960393,0.105348900195,0.0,0.0,0.0,0.0,-0.137982085347
1970/01/01/02:05:48.049000,282,0,0,world,8,1479,0.0,0.0,0.0,0.374519264726,0.87762315315,0.112119119285,0.0,0.0,0.0,0.0,-0.126776874065
1970/01/01/02:05:48.092000,283,0,0,world,8,1479,0.0,0.0,0.0,0.21353662769,0.832326132197,0.120278088875,0.0,0.0,0.0,0.0,-0.178407371044
1970/01/01/02:05:48.107000,284,0,0,world,8,1479,0.0,0.0,0.0,0.470088437286,0.997214040033,0.113155580133,0.0,0.0,0.0,0.0,-0.088414169848
1970/01/01/02:05:48.148000,285,0,0,world,8,1479,0.0,0.0,0.0,0.601878041009,0.944215866427,0.124087608886,0.0,0.0,0.0,0.0,-0.088700056076
1970/01/01/02:05:48.190000,286,0,0,world,8,1479,0.0,0.0,0.0,0.789597558595,1.0929658767,0.114356753927,0.0,0.0,0.0,0.0,-0.0197789985687
1970/01/01/02:05:48.217000,287,0,0,world,8,1479,0.0,0.0,0.0,0.974480587336,1.16337130397,0.117646460507,0.0,0.0,0.0,0.0,0.0276641100645
1970/01/01/02:05:48.252000,288,0,0,world,8,1479,0.0,0.0,0.0,1.15870039264,1.32934018337,0.105401000524,0.0,0.0,0.0,0.0,0.103164702654
1970/01/01/02:05:48.282000,289,0,0,world,8,1479,0.0,0.0,0.0,1.25652033618,1.32795647008,0.100998191191,0.0,0.0,0.0,0.0,0.135593593121
1970/01/01/02:05:48.318000,290,0,0,world,8,1479,0.0,0.0,0.0,1.09518096913,1.41171629094,0.0902064242968,0.0,0.0,0.0,0.0,0.147356256843
1970/01/01/02:05:48.350000,291,0,0,world,8,1479,0.0,0.0,0.0,0.99472171726,1.33204589705,0.0981239390336,0.0,0.0,0.0,0.0,0.116222798824
1970/01/01/02:05:48.375000,292,0,0,world,8,1479,0.0,0.0,0.0,0.756516328079,1.08902553726,0.0981037921077,0.0,0.0,0.0,0.0,0.0411266833544
1970/01/01/02:05:48.404000,293,0,0,world,8,1479,0.0,0.0,0.0,0.602718149589,0.983544509978,0.103745486539,0.0,0.0,0.0,0.0,-0.00809182785451
1970/01/01/02:05:48.452000,294,0,0,world,8,1479,0.0,0.0,0.0,0.177374031719,0.708234087687,0.0981218334391,0.0,0.0,0.0,0.0,-0.135429292917
1970/01/01/02:05:48.479000,295,0,0,world,8,1479,0.0,0.0,0.0,-0.108221558107,0.540787558168,0.0998064414942,0.0,0.0,0.0,0.0,-0.213103160262
1970/01/01/02:05:48.513000,296,0,0,world,8,1479,0.0,0.0,0.0,-0.0452042461033,0.576176120621,0.0954740367882,0.0,0.0,0.0,0.0,-0.193240046501
1970/01/01/02:05:48.549000,297,0,0,world,8,1479,0.0,0.0,0.0,0.0496811892553,0.603405671067,0.0885094166938,0.0,0.0,0.0,0.0,-0.156371325254
1970/01/01/02:05:48.593000,298,0,0,world,8,1479,0.0,0.0,0.0,0.252346513469,0.662864147639,0.0796746498308,0.0,0.0,0.0,0.0,-0.0856192782521
1970/01/01/02:05:48.616000,299,0,0,world,8,1479,0.0,0.0,0.0,0.286931412071,0.704749042458,0.0680871361472,0.0,0.0,0.0,0.0,-0.0270563736558
1970/01/01/02:05:48.632000,300,0,0,world,8,1479,0.0,0.0,0.0,0.142285164623,0.575915172196,0.0683814124965,0.0,0.0,0.0,0.0,-0.0655675381422
1970/01/01/02:05:48.663000,301,0,0,world,8,1479,0.0,0.0,0.0,0.168775316346,0.581372486202,0.0545210174009,0.0,0.0,0.0,0.0,-0.017128136009
1970/01/01/02:05:48.701000,302,0,0,world,8,1479,0.0,0.0,0.0,0.137199677991,0.409170621864,0.0271557140902,0.0,0.0,0.0,0.0,0.0477107390761
1970/01/01/02:05:48.726000,303,0,0,world,8,1479,0.0,0.0,0.0,0.0963582948502,0.387240499887,0.033877345851,0.0,0.0,0.0,0.0,0.0323596820235
1970/01/01/02:05:48.764000,304,0,0,world,8,1479,0.0,0.0,0.0,0.120805695519,0.497807689175,0.0107409585882,0.0,0.0,0.0,0.0,0.121689163148
1970/01/01/02:05:48.801000,305,0,0,world,8,1479,0.0,0.0,0.0,0.0264749964179,0.305249754771,-0.00101239670867,0.0,0.0,0.0,0.0,0.118927173316
1970/01/01/02:05:48.843000,306,0,0,world,8,1479,0.0,0.0,0.0,-0.059288933402,0.221173019731,-0.0155750273257,0.0,0.0,0.0,0.0,0.141171395779
1970/01/01/02:05:48.888000,307,0,0,world,8,1479,0.0,0.0,0.0,-0.113600076372,0.157304748315,-0.0433968471011,0.0,0.0,0.0,0.0,0.207995280623
1970/01/01/02:05:48.911000,308,0,0,world,8,1479,0.0,0.0,0.0,-0.150523678707,0.107927205128,-0.0450194450362,0.0,0.0,0.0,0.0,0.190563455224
1970/01/01/02:05:48.932000,309,0,0,world,8,1479,0.0,0.0,0.0,-0.227879280007,0.149293113704,-0.0568366611489,0.0,0.0,0.0,0.0,0.243844866753
1970/01/01/02:05:48.965000,310,0,0,world,8,1479,0.0,0.0,0.0,-0.274331489516,0.128710312323,-0.0662020920481,0.0,0.0,0.0,0.0,0.27535712719
1970/01/01/02:05:49.015000,311,0,0,world,8,1479,0.0,0.0,0.0,-0.378506338877,-0.0238602390856,-0.0764828756483,0.0,0.0,0.0,0.0,0.293871074915
1970/01/01/02:05:49.050000,312,0,0,world,8,1479,0.0,0.0,0.0,-0.441244755081,0.0597262471168,-0.0787415765177,0.0,0.0,0.0,0.0,0.342517077923
1970/01/01/02:05:49.111000,313,0,0,world,8,1479,0.0,0.0,0.0,-0.529599301039,0.076980377993,-0.079463123296,0.0,0.0,0.0,0.0,0.392205685377
1970/01/01/02:05:49.122000,314,0,0,world,8,1479,0.0,0.0,0.0,-0.542591169091,0.0300858178265,-0.0788689207694,0.0,0.0,0.0,0.0,0.379278481007
1970/01/01/02:05:49.150000,315,0,0,world,8,1479,0.0,0.0,0.0,-0.56107047475,-0.0446693289824,-0.0800003692181,0.0,0.0,0.0,0.0,0.376655131578
1970/01/01/02:05:49.207000,316,0,0,world,8,1479,0.0,0.0,0.0,-0.631381364339,0.0244738133467,-0.0766671153896,0.0,0.0,0.0,0.0,0.407554358244
1970/01/01/02:05:49.225000,317,0,0,world,8,1479,0.0,0.0,0.0,-0.771945949014,0.306803191323,-0.0915995756111,0.0,0.0,0.0,0.0,0.504564464092
1970/01/01/02:05:49.253000,318,0,0,world,8,1479,0.0,0.0,0.0,-0.681162299933,0.0255364574349,-0.0893464559029,0.0,0.0,0.0,0.0,0.428948432207
1970/01/01/02:05:49.295000,319,0,0,world,8,1479,0.0,0.0,0.0,-0.599597402137,-0.221912538293,-0.080995514085,0.0,0.0,0.0,0.0,0.363046109676
1970/01/01/02:05:49.326000,320,0,0,world,8,1479,0.0,0.0,0.0,-0.750878806977,0.125186768659,-0.092656020282,0.0,0.0,0.0,0.0,0.465683281422
1970/01/01/02:05:49.346000,321,0,0,world,8,1479,0.0,0.0,0.0,-0.634155179351,0.147655771104,-0.0901402327588,0.0,0.0,0.0,0.0,0.459841966629
1970/01/01/02:05:49.379000,322,0,0,world,8,1479,0.0,0.0,0.0,-0.607110092697,0.154594110618,-0.0889046184871,0.0,0.0,0.0,0.0,0.450368851423
1970/01/01/02:05:49.418000,323,0,0,world,8,1479,0.0,0.0,0.0,-0.568502367395,0.0494321604639,-0.0869615319252,0.0,0.0,0.0,0.0,0.40936589241
1970/01/01/02:05:49.455000,324,0,0,world,8,1479,0.0,0.0,0.0,-0.542403456433,0.150721348235,-0.084196932911,0.0,0.0,0.0,0.0,0.432775527239
1970/01/01/02:05:49.512000,325,0,0,world,8,1479,0.0,0.0,0.0,-0.393144052679,0.108162436905,-0.067719014494,0.0,0.0,0.0,0.0,0.355106770992
1970/01/01/02:05:49.530000,326,0,0,world,8,1479,0.0,0.0,0.0,-0.349593725549,0.0500440656739,-0.0545259813883,0.0,0.0,0.0,0.0,0.311413437128
1970/01/01/02:05:49.548000,327,0,0,world,8,1479,0.0,0.0,0.0,-0.32513106017,0.202677239547,-0.0591730187896,0.0,0.0,0.0,0.0,0.364141315222
1970/01/01/02:05:49.571000,328,0,0,world,8,1479,0.0,0.0,0.0,-0.187969456185,-0.00462170971077,-0.0441704555429,0.0,0.0,0.0,0.0,0.281679540873
1970/01/01/02:05:49.597000,329,0,0,world,8,1479,0.0,0.0,0.0,-0.108901038995,-0.0172599979532,-0.0356971995737,0.0,0.0,0.0,0.0,0.261113405228
1970/01/01/02:05:49.620000,330,0,0,world,8,1479,0.0,0.0,0.0,-0.0394561258081,-0.194690358875,-0.0319447030661,0.0,0.0,0.0,0.0,0.214320108294
1970/01/01/02:05:49.680000,331,0,0,world,8,1479,0.0,0.0,0.0,0.0874882422161,-0.261689286675,-0.0206564903798,0.0,0.0,0.0,0.0,0.164632052183
1970/01/01/02:05:49.732000,332,0,0,world,8,1479,0.0,0.0,0.0,0.257788854429,-0.684975842914,-0.0118275370464,0.0,0.0,0.0,0.0,0.0451455004513
1970/01/01/02:05:49.768000,333,0,0,world,8,1479,0.0,0.0,0.0,0.350432765343,-0.771233181705,-0.00517994731639,0.0,0.0,0.0,0.0,0.0389725193381
1970/01/01/02:05:49.805000,334,0,0,world,8,1479,0.0,0.0,0.0,0.465549849398,-1.05933918538,0.000446319675353,0.0,0.0,0.0,0.0,-0.0279779061675
1970/01/01/02:05:49.847000,335,0,0,world,8,1479,0.0,0.0,0.0,0.608689857665,-1.33557939937,0.00609155924152,0.0,0.0,0.0,0.0,-0.0835178419948
1970/01/01/02:05:49.876000,336,0,0,world,8,1479,0.0,0.0,0.0,0.753907634195,-1.54137464823,0.0110370011535,0.0,0.0,0.0,0.0,-0.11025313288
1970/01/01/02:05:49.933000,337,0,0,world,8,1479,0.0,0.0,0.0,0.836429314521,-1.67768966296,0.0163189176014,0.0,0.0,0.0,0.0,-0.129070669413
1970/01/01/02:05:49.961000,338,0,0,world,8,1479,0.0,0.0,0.0,1.04438341325,-1.86484512223,0.0207798966378,0.0,0.0,0.0,0.0,-0.156312376261
1970/01/01/02:05:49.990000,339,0,0,world,8,1479,0.0,0.0,0.0,1.12006722581,-1.92624781213,0.0255774420497,0.0,0.0,0.0,0.0,-0.154529899359
1970/01/01/02:05:50.032000,340,0,0,world,8,1479,0.0,0.0,0.0,1.14374904311,-1.97408994044,0.030164779329,0.0,0.0,0.0,0.0,-0.153430327773
1970/01/01/02:05:50.082000,341,0,0,world,8,1479,0.0,0.0,0.0,1.4271829728,-1.95928026296,0.0387047754539,0.0,0.0,0.0,0.0,-0.129991412163
1970/01/01/02:05:50.115000,342,0,0,world,8,1479,0.0,0.0,0.0,1.4342798625,-2.05131892629,0.0430062925711,0.0,0.0,0.0,0.0,-0.157106384635
1970/01/01/02:05:50.156000,343,0,0,world,8,1479,0.0,0.0,0.0,1.46613386173,-2.0923046927,0.0508320102336,0.0,0.0,0.0,0.0,-0.161698028445
1970/01/01/02:05:50.178000,344,0,0,world,8,1479,0.0,0.0,0.0,1.52749104729,-2.10924933533,0.0563088076467,0.0,0.0,0.0,0.0,-0.16513979435
1970/01/01/02:05:50.212000,345,0,0,world,8,1479,0.0,0.0,0.0,1.49746428544,-2.16452837439,0.0598219673582,0.0,0.0,0.0,0.0,-0.160107791424
1970/01/01/02:05:50.241000,346,0,0,world,8,1479,0.0,0.0,0.0,1.60511941498,-2.17659815213,0.0646848212078,0.0,0.0,0.0,0.0,-0.158813297749
1970/01/01/02:05:50.264000,347,0,0,world,8,1479,0.0,0.0,0.0,1.69265801686,-2.26074842823,0.072855439487,0.0,0.0,0.0,0.0,-0.182429268956
1970/01/01/02:05:50.278000,348,0,0,world,8,1479,0.0,0.0,0.0,1.5037038871,-2.12654407525,0.073029978689,0.0,0.0,0.0,0.0,-0.126269683242
1970/01/01/02:05:50.317000,349,0,0,world,8,1479,0.0,0.0,0.0,1.55073178172,-2.28465798129,0.0824653250976,0.0,0.0,0.0,0.0,-0.167553707957
1970/01/01/02:05:50.346000,350,0,0,world,8,1479,0.0,0.0,0.0,1.64064097246,-2.48729871403,0.0845966392376,0.0,0.0,0.0,0.0,-0.197908550501
1970/01/01/02:05:50.361000,351,0,0,world,8,1479,0.0,0.0,0.0,1.55814277913,-2.58514360009,0.0905960438503,0.0,0.0,0.0,0.0,-0.225953072309
1970/01/01/02:05:50.396000,352,0,0,world,8,1479,0.0,0.0,0.0,1.52089499017,-2.49412169664,0.0914324904411,0.0,0.0,0.0,0.0,-0.204533562064
1970/01/01/02:05:50.421000,353,0,0,world,8,1479,0.0,0.0,0.0,1.31978732784,-2.43112927917,0.10246329232,0.0,0.0,0.0,0.0,-0.179528653622
1970/01/01/02:05:50.752000,354,0,0,world,8,1479,0.0,0.0,0.0,-1.1629353824,-1.21231907472,0.152524392376,0.0,0.0,0.0,0.0,0.353187382221
1970/01/01/02:05:50.918000,355,0,0,world,8,1479,0.0,0.0,0.0,-2.40700252481,0.670687061521,0.133084768106,0.0,0.0,0.0,0.0,0.867857635021
1970/01/01/02:05:50.951000,356,0,0,world,8,1479,0.0,0.0,0.0,26.9739234497,-19.4068315137,0.0942539111945,0.0,0.0,0.0,0.0,-5.74989509583
1970/01/01/02:05:50.997000,357,0,0,world,8,1479,0.0,0.0,0.0,23.8619828973,-17.5707236761,0.0798719207869,0.0,0.0,0.0,0.0,-5.26597499847
1970/01/01/02:05:51.031000,358,0,0,world,8,1479,0.0,0.0,0.0,-1.14543244555,0.94909143569,0.0797216360401,0.0,0.0,0.0,0.0,0.693348765373
1970/01/01/02:05:51.064000,359,0,0,world,8,1479,0.0,0.0,0.0,-0.458619154341,0.0168996063344,0.0580841129863,0.0,0.0,0.0,0.0,0.339887976646
1970/01/01/02:05:51.109000,360,0,0,world,8,1479,0.0,0.0,0.0,-0.0969802404974,-0.0350190239129,0.0450969584815,0.0,0.0,0.0,0.0,0.25832259655
1970/01/01/02:05:51.136000,361,0,0,world,8,1479,0.0,0.0,0.0,-0.0170507041263,-0.157731736521,0.0350536549357,0.0,0.0,0.0,0.0,0.176563620567
1970/01/01/02:05:51.168000,362,0,0,world,8,1479,0.0,0.0,0.0,0.265786600313,-0.260072513701,0.0246035070194,0.0,0.0,0.0,0.0,0.089075833559
1970/01/01/02:05:51.194000,363,0,0,world,8,1479,0.0,0.0,0.0,0.277954856836,-0.0916916895326,0.0187709428308,0.0,0.0,0.0,0.0,0.090082988143
1970/01/01/02:05:51.239000,364,0,0,world,8,1479,0.0,0.0,0.0,0.467906620381,-0.106845004121,0.0080328940657,0.0,0.0,0.0,0.0,0.0222873892635
1970/01/01/02:05:51.286000,365,0,0,world,8,1479,0.0,0.0,0.0,0.449384498065,-0.126487821532,-0.0115166139994,0.0,0.0,0.0,0.0,-0.0883617475629
1970/01/01/02:05:51.309000,366,0,0,world,8,1479,0.0,0.0,0.0,0.617983382733,0.0765149900571,-0.00965184290006,0.0,0.0,0.0,0.0,-0.046456258744
1970/01/01/02:05:51.341000,367,0,0,world,8,1479,0.0,0.0,0.0,0.5154565332,-0.0510508193842,-0.0182503157009,0.0,0.0,0.0,0.0,-0.130552485585
1970/01/01/02:05:51.371000,368,0,0,world,8,1479,0.0,0.0,0.0,0.470345932989,0.00778148586294,-0.0237879637991,0.0,0.0,0.0,0.0,-0.161520034075
1970/01/01/02:05:51.402000,369,0,0,world,8,1479,0.0,0.0,0.0,0.391971840151,-0.0820561895899,-0.0241454227097,0.0,0.0,0.0,0.0,-0.226644814014
1970/01/01/02:05:51.457000,370,0,0,world,8,1479,0.0,0.0,0.0,0.166043568031,-0.211792871896,-0.0171751605522,0.0,0.0,0.0,0.0,-0.290094971657
1970/01/01/02:05:51.481000,371,0,0,world,8,1479,0.0,0.0,0.0,0.200551139709,-0.0541260246196,-0.00653189221866,0.0,0.0,0.0,0.0,-0.249864980578
1970/01/01/02:05:51.512000,372,0,0,world,8,1479,0.0,0.0,0.0,0.222990753411,0.239547051964,0.00121795707789,0.0,0.0,0.0,0.0,-0.167401894927
1970/01/01/02:05:51.583000,373,0,0,world,8,1479,0.0,0.0,0.0,0.0930138049209,-0.167516637272,0.0226021227005,0.0,0.0,0.0,0.0,-0.221263080835
1970/01/01/02:05:51.606000,374,0,0,world,8,1479,0.0,0.0,0.0,0.238945530747,0.0155553943156,0.0443590871159,0.0,0.0,0.0,0.0,-0.126295655966
1970/01/01/02:05:51.643000,375,0,0,world,8,1479,0.0,0.0,0.0,0.634420036954,0.612837317041,0.0653800000274,0.0,0.0,0.0,0.0,0.0848760902882
1970/01/01/02:05:51.672000,376,0,0,world,8,1479,0.0,0.0,0.0,0.790491660425,1.0332813682,0.083266033467,0.0,0.0,0.0,0.0,0.281426906586
1970/01/01/02:05:51.703000,377,0,0,world,8,1479,0.0,0.0,0.0,1.37694094162,1.67810451458,0.102883662298,0.0,0.0,0.0,0.0,0.498623043299
1970/01/01/02:05:51.736000,378,0,0,world,8,1479,0.0,0.0,0.0,2.4908345713,2.12761999117,0.131780566703,0.0,0.0,0.0,0.0,0.80985724926
1970/01/01/02:05:51.778000,379,0,0,world,8,1479,0.0,0.0,0.0,2.42533358291,1.63978017617,0.146353484143,0.0,0.0,0.0,0.0,0.721087098122
1970/01/01/02:05:51.792000,380,0,0,world,8,1479,0.0,0.0,0.0,2.94738102529,3.33578109428,0.152792571386,0.0,0.0,0.0,0.0,0.974116802216
1970/01/01/02:05:51.821000,381,0,0,world,8,1479,0.0,0.0,0.0,2.62948860848,3.22875849516,0.167456249187,0.0,0.0,0.0,0.0,0.828377306461
1970/01/01/02:05:51.849000,382,0,0,world,8,1479,0.0,0.0,0.0,1.82783940376,3.23117142395,0.176376674396,0.0,0.0,0.0,0.0,0.560846507549
1970/01/01/02:05:51.897000,383,0,0,world,8,1479,0.0,0.0,0.0,1.27136857871,3.44406776981,0.183076144317,0.0,0.0,0.0,0.0,0.388751417398
1970/01/01/02:05:51.957000,384,0,0,world,8,1479,0.0,0.0,0.0,-0.242002238771,2.37859378327,0.190072627376,0.0,0.0,0.0,0.0,-0.0852316468954
1970/01/01/02:05:51.980000,385,0,0,world,8,1479,0.0,0.0,0.0,-2.5693307912,0.724135419851,0.187805827419,0.0,0.0,0.0,0.0,-0.734571695328
1970/01/01/02:05:51.994000,386,0,0,world,8,1479,0.0,0.0,0.0,-3.97708611393,-1.19610558635,0.171588745417,0.0,0.0,0.0,0.0,-1.3911806345
1970/01/01/02:05:52.042000,387,0,0,world,8,1479,0.0,0.0,0.0,-5.54891825558,-4.32177655853,0.144976439264,0.0,0.0,0.0,0.0,-2.49019002914
1970/01/01/02:05:52.102000,388,0,0,world,8,1479,0.0,0.0,0.0,-4.86308494661,-4.67915511845,0.136462359629,0.0,0.0,0.0,0.0,-2.60899448395
1970/01/01/02:05:52.146000,389,0,0,world,8,1479,0.0,0.0,0.0,-3.86999609099,-2.40314649629,0.127193655062,0.0,0.0,0.0,0.0,-1.94508969784
1970/01/01/02:05:52.203000,390,0,0,world,8,1479,0.0,0.0,0.0,-3.13857499246,1.77745812828,0.128184304381,0.0,0.0,0.0,0.0,-0.695064008236
1970/01/01/02:05:52.231000,391,0,0,world,8,1479,0.0,0.0,0.0,-2.82001462439,5.09798295573,0.13311896125,0.0,0.0,0.0,0.0,0.396489620209
1970/01/01/02:05:52.263000,392,0,0,world,8,1479,0.0,0.0,0.0,-1.53284336231,6.40062341766,0.141432021475,0.0,0.0,0.0,0.0,0.942691206932
1970/01/01/02:05:52.294000,393,0,0,world,8,1479,0.0,0.0,0.0,1.28282017113,7.61213154489,0.153430916641,0.0,0.0,0.0,0.0,1.49570858479
1970/01/01/02:05:52.320000,394,0,0,world,8,1479,0.0,0.0,0.0,3.61398959852,6.35385836094,0.16047069083,0.0,0.0,0.0,0.0,1.49313187599
1970/01/01/02:05:52.359000,395,0,0,world,8,1479,0.0,0.0,0.0,4.3849188663,3.5012122785,0.164289548964,0.0,0.0,0.0,0.0,1.11498296261
1970/01/01/02:05:52.392000,396,0,0,world,8,1479,0.0,0.0,0.0,2.98508930814,1.67222137841,0.156113654321,0.0,0.0,0.0,0.0,0.620268464088
1970/01/01/02:05:52.399000,397,0,0,world,8,1479,0.0,0.0,0.0,2.6181253656,1.60017063762,0.156405877603,0.0,0.0,0.0,0.0,0.487142562866
1970/01/01/02:05:52.444000,398,0,0,world,8,1479,0.0,0.0,0.0,1.50400473472,0.832991143515,0.151360433836,0.0,0.0,0.0,0.0,0.0722655653954
1970/01/01/02:05:52.497000,399,0,0,world,8,1479,0.0,0.0,0.0,0.342714541488,1.06583631563,0.14921638997,0.0,0.0,0.0,0.0,-0.332307547331
1970/01/01/02:05:52.517000,400,0,0,world,8,1479,0.0,0.0,0.0,-0.196987490523,1.13870023135,0.142866743855,0.0,0.0,0.0,0.0,-0.519283592701
1970/01/01/02:05:52.534000,401,0,0,world,8,1479,0.0,0.0,0.0,-0.471974334742,1.16797172025,0.138130469754,0.0,0.0,0.0,0.0,-0.598063051701
1970/01/01/02:05:52.564000,402,0,0,world,8,1479,0.0,0.0,0.0,-0.578765381265,1.32185507202,0.134891290897,0.0,0.0,0.0,0.0,-0.643720149994
1970/01/01/02:05:52.590000,403,0,0,world,8,1479,0.0,0.0,0.0,-0.912831249578,1.27553772599,0.129707337634,0.0,0.0,0.0,0.0,-0.770946681499
1970/01/01/02:05:52.629000,404,0,0,world,8,1479,0.0,0.0,0.0,-0.955371051481,0.948404453481,0.124980814705,0.0,0.0,0.0,0.0,-0.768194675446
1970/01/01/02:05:52.646000,405,0,0,world,8,1479,0.0,0.0,0.0,-1.0678203293,0.458290543489,0.124766790349,0.0,0.0,0.0,0.0,-0.762385249138
1970/01/01/02:05:52.662000,406,0,0,world,8,1479,0.0,0.0,0.0,-1.02606397768,0.337981858617,0.131658773218,0.0,0.0,0.0,0.0,-0.748690485954
1970/01/01/02:05:52.684000,407,0,0,world,8,1479,0.0,0.0,0.0,-0.620749588305,0.514438619254,0.132873981226,0.0,0.0,0.0,0.0,-0.54474157095
1970/01/01/02:05:52.709000,408,0,0,world,8,1479,0.0,0.0,0.0,-0.389658982179,0.0648042432174,0.138233424664,0.0,0.0,0.0,0.0,-0.569472193718
1970/01/01/02:05:52.719000,409,0,0,world,8,1479,0.0,0.0,0.0,-0.068074541198,0.118838228747,0.140980236559,0.0,0.0,0.0,0.0,-0.414613991976
1970/01/01/02:05:52.777000,410,0,0,world,8,1479,0.0,0.0,0.0,1.12345967905,-0.031034381403,0.142578474967,0.0,0.0,0.0,0.0,-0.173863202333
1970/01/01/02:05:52.824000,411,0,0,world,8,1479,0.0,0.0,0.0,1.56326323951,0.285854632846,0.1403770006,0.0,0.0,0.0,0.0,-0.0699857026339
1970/01/01/02:05:52.867000,412,0,0,world,8,1479,0.0,0.0,0.0,1.2523481081,0.481497026116,0.127770038847,0.0,0.0,0.0,0.0,-0.148190110922
1970/01/01/02:05:52.892000,413,0,0,world,8,1479,0.0,0.0,0.0,0.717494621596,0.846126406028,0.112476299087,0.0,0.0,0.0,0.0,-0.194282561541
1970/01/01/02:05:52.926000,414,0,0,world,8,1479,0.0,0.0,0.0,0.208540575705,0.53076640075,0.095574104786,0.0,0.0,0.0,0.0,-0.449207007885
1970/01/01/02:05:52.941000,415,0,0,world,8,1479,0.0,0.0,0.0,0.133199517423,0.43797669379,0.0716543262237,0.0,0.0,0.0,0.0,-0.483631849289
1970/01/01/02:05:52.964000,416,0,0,world,8,1479,0.0,0.0,0.0,-0.193933072406,0.239988519191,0.0567654329871,0.0,0.0,0.0,0.0,-0.564549922943
1970/01/01/02:05:52.992000,417,0,0,world,8,1479,0.0,0.0,0.0,-0.774938127939,0.0626126386011,0.0561177389157,0.0,0.0,0.0,0.0,-0.61581748724
1970/01/01/02:05:53.012000,418,0,0,world,8,1479,0.0,0.0,0.0,-0.484708003712,-0.202218862999,0.0476581789073,0.0,0.0,0.0,0.0,-0.617668628693
1970/01/01/02:05:53.047000,419,0,0,world,8,1479,0.0,0.0,0.0,-0.1289446248,-0.116315481426,0.0345429268295,0.0,0.0,0.0,0.0,-0.504289925098
1970/01/01/02:05:53.060000,420,0,0,world,8,1479,0.0,0.0,0.0,24.4459064589,50.8485415784,0.0108098182084,0.0,0.0,0.0,0.0,12.744011879
1970/01/01/02:05:53.109000,421,0,0,world,8,1479,0.0,0.0,0.0,0.292080265524,-0.0469672267049,0.026403448562,0.0,0.0,0.0,0.0,-0.296899825335
1970/01/01/02:05:53.124000,422,0,0,world,8,1479,0.0,0.0,0.0,0.519716399501,0.153863611581,0.0233364909327,0.0,0.0,0.0,0.0,-0.207235664129
1970/01/01/02:05:53.186000,423,0,0,world,8,1479,0.0,0.0,0.0,0.861654020611,0.337972796386,0.0158083148532,0.0,0.0,0.0,0.0,-0.070844642818
1970/01/01/02:05:53.192000,424,0,0,world,8,1479,0.0,0.0,0.0,0.887243309429,0.380020756964,0.0135564486022,0.0,0.0,0.0,0.0,-0.00429057376459
1970/01/01/02:05:53.221000,425,0,0,world,8,1479,0.0,0.0,0.0,0.48526075661,0.252721417828,0.0129384941328,0.0,0.0,0.0,0.0,-0.0575516186655
1970/01/01/02:05:53.255000,426,0,0,world,8,1479,0.0,0.0,0.0,0.444118572021,0.250162456916,0.0078990482976,0.0,0.0,0.0,0.0,-0.0310904048383
1970/01/01/02:05:53.271000,427,0,0,world,8,1479,0.0,0.0,0.0,0.492912872034,0.186661626443,0.00576953843884,0.0,0.0,0.0,0.0,-0.0147129409015
1970/01/01/02:05:53.333000,428,0,0,world,8,1479,0.0,0.0,0.0,0.61049243381,0.304201393628,0.00115670954192,0.0,0.0,0.0,0.0,0.0829519480467
1970/01/01/02:05:53.381000,429,0,0,world,8,1479,0.0,0.0,0.0,0.531812890201,0.299902650634,-0.000117354029988,0.0,0.0,0.0,0.0,0.109876938164
1970/01/01/02:05:53.396000,430,0,0,world,8,1479,0.0,0.0,0.0,0.487136269528,0.409766273854,0.000381872357036,0.0,0.0,0.0,0.0,0.18348608911
1970/01/01/02:05:53.424000,431,0,0,world,8,1479,0.0,0.0,0.0,0.484630661616,0.559568290803,0.00135877533309,0.0,0.0,0.0,0.0,0.234914660454
1970/01/01/02:05:53.464000,432,0,0,world,8,1479,0.0,0.0,0.0,0.314686413439,0.401106852258,0.00210619443748,0.0,0.0,0.0,0.0,0.217973485589
1970/01/01/02:05:53.499000,433,0,0,world,8,1479,0.0,0.0,0.0,0.261139826462,0.454568747463,0.000951366377889,0.0,0.0,0.0,0.0,0.231151327491
