time,.header.seq,.header.stamp.secs,.header.stamp.nsecs,.header.frame_id,.coordinate_frame,.type_mask,.position.x,.position.y,.position.z,.velocity.x,.velocity.y,.velocity.z,.acceleration_or_force.x,.acceleration_or_force.y,.acceleration_or_force.z,.yaw,.yaw_rate
1970/01/01/02:03:51.472000,1,0,0,world,8,1479,0.0,0.0,0.0,0.0281897748848,0.278822958882,3.56045460299e-06,0.0,0.0,0.0,0.0,0.0584791116416
1970/01/01/02:03:51.500000,2,0,0,world,8,1479,0.0,0.0,0.0,0.024728899431,0.269438934571,4.37636969435e-06,0.0,0.0,0.0,0.0,0.0551187507808
1970/01/01/02:03:51.525000,3,0,0,world,8,1479,0.0,0.0,0.0,0.0317623554086,0.353993443435,-1.51396275584e-05,0.0,0.0,0.0,0.0,0.0893509238958
1970/01/01/02:03:51.566000,4,0,0,world,8,1479,0.0,0.0,0.0,0.0390294987109,0.330233827606,1.58653077171e-05,0.0,0.0,0.0,0.0,0.070707462728
1970/01/01/02:03:51.588000,5,0,0,world,8,1479,0.0,0.0,0.0,0.0360039337865,0.337858978235,9.06225663514e-05,0.0,0.0,0.0,0.0,0.0724980533123
1970/01/01/02:03:51.625000,6,0,0,world,8,1479,0.0,0.0,0.0,0.0538783569606,0.364893550669,0.000360685387069,0.0,0.0,0.0,0.0,0.068135663867
1970/01/01/02:03:51.649000,7,0,0,world,8,1479,0.0,0.0,0.0,0.0318072363161,0.395652586014,0.00107143174076,0.0,0.0,0.0,0.0,0.061122070998
1970/01/01/02:03:51.691000,8,0,0,world,8,1479,0.0,0.0,0.0,0.0456701989626,0.427413897316,0.00233389561429,0.0,0.0,0.0,0.0,0.0457906611264
1970/01/01/02:03:51.734000,9,0,0,world,8,1479,0.0,0.0,0.0,0.0433156373269,0.49691749401,0.00642803654323,0.0,0.0,0.0,0.0,0.0114866681397
1970/01/01/02:03:51.764000,10,0,0,world,8,1479,0.0,0.0,0.0,0.049270786308,0.535729006107,0.00828492583407,0.0,0.0,0.0,0.0,0.00853468291461
1970/01/01/02:03:51.789000,11,0,0,world,8,1479,0.0,0.0,0.0,0.0705849160521,0.589071208793,0.0090054287441,0.0,0.0,0.0,0.0,0.01962762326
1970/01/01/02:03:51.826000,12,0,0,world,8,1479,0.0,0.0,0.0,0.0652434881293,0.56439703494,0.0150399530877,0.0,0.0,0.0,0.0,-0.0201611332595
1970/01/01/02:03:51.859000,13,0,0,world,8,1479,0.0,0.0,0.0,0.071269373145,0.575644728275,0.0188921683768,0.0,0.0,0.0,0.0,-0.0385017357767
1970/01/01/02:03:51.890000,14,0,0,world,8,1479,0.0,0.0,0.0,0.0830398076356,0.648123053765,0.0191621967973,0.0,0.0,0.0,0.0,-0.0156296733767
1970/01/01/02:03:51.922000,15,0,0,world,8,1479,0.0,0.0,0.0,0.0672434470845,0.535450496503,0.0220634468654,0.0,0.0,0.0,0.0,-0.0705381408334
1970/01/01/02:03:51.954000,16,0,0,world,8,1479,0.0,0.0,0.0,0.072028727066,0.549825375617,0.0231895759424,0.0,0.0,0.0,0.0,-0.0620468445122
1970/01/01/02:03:51.988000,17,0,0,world,8,1479,0.0,0.0,0.0,0.0670006413395,0.588207094198,0.0228344851214,0.0,0.0,0.0,0.0,-0.0471788272262
1970/01/01/02:03:52.020000,18,0,0,world,8,1479,0.0,0.0,0.0,0.0524749773084,0.569969276574,0.0226652076912,0.0,0.0,0.0,0.0,-0.0514218918979
1970/01/01/02:03:52.054000,19,0,0,world,8,1479,0.0,0.0,0.0,0.0544826722521,0.502355479543,0.0240676030202,0.0,0.0,0.0,0.0,-0.0637586563826
1970/01/01/02:03:52.086000,20,0,0,world,8,1479,0.0,0.0,0.0,0.0530927965905,0.511073897279,0.022409311297,0.0,0.0,0.0,0.0,-0.0421045422554
1970/01/01/02:03:52.121000,21,0,0,world,8,1479,0.0,0.0,0.0,0.0410607019105,0.459918662582,0.0206439843956,0.0,0.0,0.0,0.0,-0.0533937700093
1970/01/01/02:03:52.157000,22,0,0,world,8,1479,0.0,0.0,0.0,0.0751580552387,0.488447726219,0.0142737874287,0.0,0.0,0.0,0.0,-0.00995762925595
1970/01/01/02:03:52.190000,23,0,0,world,8,1479,0.0,0.0,0.0,0.0844656144982,0.427643875197,0.0120754278408,0.0,0.0,0.0,0.0,-0.00958724785596
1970/01/01/02:03:52.225000,24,0,0,world,8,1479,0.0,0.0,0.0,0.0927658666624,0.423357922916,0.00821264033481,0.0,0.0,0.0,0.0,0.0134260393679
1970/01/01/02:03:52.260000,25,0,0,world,8,1479,0.0,0.0,0.0,0.100275791731,0.414012897652,0.00647657822902,0.0,0.0,0.0,0.0,0.0269727408886
1970/01/01/02:03:52.293000,26,0,0,world,8,1479,0.0,0.0,0.0,0.109337650941,0.47096477544,0.00337901908827,0.0,0.0,0.0,0.0,0.0668228939176
1970/01/01/02:03:52.322000,27,0,0,world,8,1479,0.0,0.0,0.0,0.0931424324324,0.451953087233,0.00185776876498,0.0,0.0,0.0,0.0,0.0742789283395
1970/01/01/02:03:52.355000,28,0,0,world,8,1479,0.0,0.0,0.0,0.104803252184,0.404853555191,0.000563975880851,0.0,0.0,0.0,0.0,0.0666483789682
1970/01/01/02:03:52.385000,29,0,0,world,8,1479,0.0,0.0,0.0,0.0992375794028,0.420049770652,0.000702342745362,0.0,0.0,0.0,0.0,0.0750958994031
1970/01/01/02:03:52.417000,30,0,0,world,8,1479,0.0,0.0,0.0,0.110611987059,0.40182676116,5.14574368467e-06,0.0,0.0,0.0,0.0,0.0748612806201
1970/01/01/02:03:52.454000,31,0,0,world,8,1479,0.0,0.0,0.0,0.118671683764,0.412012386135,-0.000634444158734,0.0,0.0,0.0,0.0,0.0873336941004
1970/01/01/02:03:52.489000,32,0,0,world,8,1479,0.0,0.0,0.0,0.0921538791409,0.434215408088,-0.000940530014408,0.0,0.0,0.0,0.0,0.103156588972
1970/01/01/02:03:52.520000,33,0,0,world,8,1479,0.0,0.0,0.0,0.09551750641,0.420104425665,-0.00104121365125,0.0,0.0,0.0,0.0,0.099972628057
1970/01/01/02:03:52.555000,34,0,0,world,8,1479,0.0,0.0,0.0,0.0987574610805,0.393643667564,-0.00100791022174,0.0,0.0,0.0,0.0,0.0915165320039
1970/01/01/02:03:52.588000,35,0,0,world,8,1479,0.0,0.0,0.0,0.101644151035,0.375820562874,-0.000909992261521,0.0,0.0,0.0,0.0,0.0858723595738
1970/01/01/02:03:52.621000,36,0,0,world,8,1479,0.0,0.0,0.0,0.085436216027,0.396514258787,-0.000868381336197,0.0,0.0,0.0,0.0,0.100661791861
1970/01/01/02:03:52.660000,37,0,0,world,8,1479,0.0,0.0,0.0,0.0724006718672,0.378707302449,-0.000754405481532,0.0,0.0,0.0,0.0,0.0908583626151
1970/01/01/02:03:52.696000,38,0,0,world,8,1479,0.0,0.0,0.0,0.0722542685753,0.371656625083,-0.000641818699678,0.0,0.0,0.0,0.0,0.0939113646746
1970/01/01/02:03:52.734000,39,0,0,world,8,1479,0.0,0.0,0.0,0.0677743266821,0.400179423834,-0.000316074096849,0.0,0.0,0.0,0.0,0.107878424227
1970/01/01/02:03:52.752000,40,0,0,world,8,1479,0.0,0.0,0.0,0.0620401051567,0.347102785632,-0.000321123646508,0.0,0.0,0.0,0.0,0.0945704951882
1970/01/01/02:03:52.788000,41,0,0,world,8,1479,0.0,0.0,0.0,0.0535575770044,0.369039370991,-2.50575642751e-05,0.0,0.0,0.0,0.0,0.102288492024
1970/01/01/02:03:52.823000,42,0,0,world,8,1479,0.0,0.0,0.0,0.0467182270622,0.325508682357,-2.83397387262e-05,0.0,0.0,0.0,0.0,0.0896998494864
1970/01/01/02:03:52.861000,43,0,0,world,8,1479,0.0,0.0,0.0,0.0701051480247,0.310834443794,7.04154270871e-05,0.0,0.0,0.0,0.0,0.0825554132462
1970/01/01/02:03:52.892000,44,0,0,world,8,1479,0.0,0.0,0.0,0.0579925696381,0.313658437681,0.000164225097471,0.0,0.0,0.0,0.0,0.0869202911854
1970/01/01/02:03:52.926000,45,0,0,world,8,1479,0.0,0.0,0.0,0.044640935513,0.296478085847,0.000273037770424,0.0,0.0,0.0,0.0,0.0883320495486
1970/01/01/02:03:52.955000,46,0,0,world,8,1479,0.0,0.0,0.0,0.051883061269,0.337662793381,0.000386938733622,0.0,0.0,0.0,0.0,0.111368872225
1970/01/01/02:03:52.988000,47,0,0,world,8,1479,0.0,0.0,0.0,0.0424464383721,0.243617274823,0.000378243508524,0.0,0.0,0.0,0.0,0.0813562572002
1970/01/01/02:03:53.020000,48,0,0,world,8,1479,0.0,0.0,0.0,0.067476500878,0.206007454692,0.000416560664664,0.0,0.0,0.0,0.0,0.0693433657289
1970/01/01/02:03:53.054000,49,0,0,world,8,1479,0.0,0.0,0.0,0.0425074087956,0.247598311086,0.00067278796287,0.0,0.0,0.0,0.0,0.0941838622093
1970/01/01/02:03:53.089000,50,0,0,world,8,1479,0.0,0.0,0.0,0.0318723382937,0.159152181522,0.000550160556238,0.0,0.0,0.0,0.0,0.0689623355865
1970/01/01/02:03:53.120000,51,0,0,world,8,1479,0.0,0.0,0.0,0.0631411885297,0.224451252088,0.000958946540735,0.0,0.0,0.0,0.0,0.0992755889893
1970/01/01/02:03:53.153000,52,0,0,world,8,1479,0.0,0.0,0.0,0.0773518243083,0.16231691495,0.00102129305588,0.0,0.0,0.0,0.0,0.0847611129284
1970/01/01/02:03:53.183000,53,0,0,world,8,1479,0.0,0.0,0.0,0.0323530428122,0.0682670791978,0.00100541098637,0.0,0.0,0.0,0.0,0.0694140195847
1970/01/01/02:03:53.224000,54,0,0,world,8,1479,0.0,0.0,0.0,0.0709121486186,0.0943295409744,0.00131970611687,0.0,0.0,0.0,0.0,0.0817373394966
1970/01/01/02:03:53.261000,55,0,0,world,8,1479,0.0,0.0,0.0,0.111151701439,0.0141560391632,0.00164416327883,0.0,0.0,0.0,0.0,0.0588739551604
1970/01/01/02:03:53.289000,56,0,0,world,8,1479,0.0,0.0,0.0,0.0673164666685,-0.0615274649485,0.00218142634212,0.0,0.0,0.0,0.0,0.0505708493292
1970/01/01/02:03:53.320000,57,0,0,world,8,1479,0.0,0.0,0.0,0.117812705397,-0.0738046632528,0.00317794070484,0.0,0.0,0.0,0.0,0.0569390133023
1970/01/01/02:03:53.358000,58,0,0,world,8,1479,0.0,0.0,0.0,0.181628058275,-0.128054821392,0.00395602267819,0.0,0.0,0.0,0.0,0.0447610504925
1970/01/01/02:03:53.386000,59,0,0,world,8,1479,0.0,0.0,0.0,0.223996022264,-0.223167136772,0.00461661090248,0.0,0.0,0.0,0.0,0.0356128923595
1970/01/01/02:03:53.422000,60,0,0,world,8,1479,0.0,0.0,0.0,0.219409570141,-0.138795348829,0.00763142196723,0.0,0.0,0.0,0.0,0.0734289735556
1970/01/01/02:03:53.458000,61,0,0,world,8,1479,0.0,0.0,0.0,0.253515731292,-0.309616433105,0.00804200444961,0.0,0.0,0.0,0.0,0.0523535832763
1970/01/01/02:03:53.490000,62,0,0,world,8,1479,0.0,0.0,0.0,0.791525387115,-0.459277132574,0.0117431965983,0.0,0.0,0.0,0.0,-0.00576456729323
1970/01/01/02:03:53.525000,63,0,0,world,8,1479,0.0,0.0,0.0,0.370409360887,-0.447276951459,0.0159634167696,0.0,0.0,0.0,0.0,0.0182748977095
1970/01/01/02:03:53.558000,64,0,0,world,8,1479,0.0,0.0,0.0,1.06851919377,-0.494253750428,0.0195871149608,0.0,0.0,0.0,0.0,-0.0211477652192
1970/01/01/02:03:53.586000,65,0,0,world,8,1479,0.0,0.0,0.0,0.511180700644,-0.555547649642,0.0235948760621,0.0,0.0,0.0,0.0,-0.0220780596137
1970/01/01/02:03:53.619000,66,0,0,world,8,1479,0.0,0.0,0.0,9.27603853568,-39.4087665788,0.0194047776505,0.0,0.0,0.0,0.0,-12.9884872437
1970/01/01/02:03:53.656000,67,0,0,world,8,1479,0.0,0.0,0.0,0.526949442074,-0.622668690977,0.0282935779463,0.0,0.0,0.0,0.0,-0.0178139153868
1970/01/01/02:03:53.689000,68,0,0,world,8,1479,0.0,0.0,0.0,0.513388916086,-0.755088496597,0.0323648625044,0.0,0.0,0.0,0.0,-0.0507503971457
1970/01/01/02:03:53.729000,69,0,0,world,8,1479,0.0,0.0,0.0,0.553168137112,-0.661882499997,0.0407529525144,0.0,0.0,0.0,0.0,-0.0218750741333
1970/01/01/02:03:53.761000,70,0,0,world,8,1479,0.0,0.0,0.0,0.500138781843,-0.791843180298,0.0416294790443,0.0,0.0,0.0,0.0,-0.065756753087
1970/01/01/02:03:53.792000,71,0,0,world,8,1479,0.0,0.0,0.0,0.701618754996,-0.763437759451,0.0516769402466,0.0,0.0,0.0,0.0,-0.0689359754324
1970/01/01/02:03:53.826000,72,0,0,world,8,1479,0.0,0.0,0.0,0.653256590275,-0.762925336408,0.0561940906576,0.0,0.0,0.0,0.0,-0.0734634399414
1970/01/01/02:03:53.856000,73,0,0,world,8,1479,0.0,0.0,0.0,0.487383807938,-0.767286501267,0.0571995841614,0.0,0.0,0.0,0.0,-0.0483347922564
1970/01/01/02:03:53.892000,74,0,0,world,8,1479,0.0,0.0,0.0,0.402194655263,-0.800598524455,0.0586101641554,0.0,0.0,0.0,0.0,-0.0351878479123
1970/01/01/02:03:53.965000,75,0,0,world,8,1479,0.0,0.0,0.0,0.340771752102,-0.764667142173,0.0604514690993,0.0,0.0,0.0,0.0,-0.00402284599841
1970/01/01/02:03:53.992000,76,0,0,world,8,1479,0.0,0.0,0.0,0.112441996073,-0.623307556212,0.0587374704489,0.0,0.0,0.0,0.0,0.10632058233
1970/01/01/02:03:54.020000,77,0,0,world,8,1479,0.0,0.0,0.0,-0.0969852712268,-0.44136323298,0.0552823311229,0.0,0.0,0.0,0.0,0.218651384115
1970/01/01/02:03:54.057000,78,0,0,world,8,1479,0.0,0.0,0.0,-0.350455377034,-0.137848483921,0.0505093612458,0.0,0.0,0.0,0.0,0.35223916173
1970/01/01/02:03:54.089000,79,0,0,world,8,1479,0.0,0.0,0.0,9.18863318318,-39.10324837,0.0383614152845,0.0,0.0,0.0,0.0,-12.292339325
1970/01/01/02:03:54.123000,80,0,0,world,8,1479,0.0,0.0,0.0,-0.252687557725,0.513787434244,0.0366873560107,0.0,0.0,0.0,0.0,0.534483969212
1970/01/01/02:03:54.156000,81,0,0,world,8,1479,0.0,0.0,0.0,0.413950908316,0.7681516854,0.0256260452302,0.0,0.0,0.0,0.0,0.553859114647
1970/01/01/02:03:54.185000,82,0,0,world,8,1479,0.0,0.0,0.0,-0.0423592768273,0.625742126494,0.0159709529481,0.0,0.0,0.0,0.0,0.480856865644
1970/01/01/02:03:54.219000,83,0,0,world,8,1479,0.0,0.0,0.0,0.16366783375,0.471082777152,0.00884232469458,0.0,0.0,0.0,0.0,0.372156322002
1970/01/01/02:03:54.256000,84,0,0,world,8,1479,0.0,0.0,0.0,0.158075504821,0.39036282384,0.00119258508688,0.0,0.0,0.0,0.0,0.313048690557
1970/01/01/02:03:54.286000,85,0,0,world,8,1479,0.0,0.0,0.0,0.675569223404,0.17527675687,-0.00306823757034,0.0,0.0,0.0,0.0,0.185063719749
1970/01/01/02:03:54.317000,86,0,0,world,8,1479,0.0,0.0,0.0,0.227304488158,0.158150687893,-0.0042436528819,0.0,0.0,0.0,0.0,0.145227774978
1970/01/01/02:03:54.349000,87,0,0,world,8,1479,0.0,0.0,0.0,4.67292319728,-33.1395476063,-0.00744368730873,0.0,0.0,0.0,0.0,-11.7971143723
1970/01/01/02:03:54.387000,88,0,0,world,8,1479,0.0,0.0,0.0,3.22945944625,-29.5812313357,-0.0031164403464,0.0,0.0,0.0,0.0,-10.6232309341
1970/01/01/02:03:54.422000,89,0,0,world,8,1479,0.0,0.0,0.0,0.0988620612554,0.141290843172,0.0018160910409,0.0,0.0,0.0,0.0,0.00582148507237
1970/01/01/02:03:54.456000,90,0,0,world,8,1479,0.0,0.0,0.0,0.0306411934475,0.0793597300191,0.00358255462777,0.0,0.0,0.0,0.0,-0.0555374361575
1970/01/01/02:03:54.488000,91,0,0,world,8,1479,0.0,0.0,0.0,0.0450583783728,0.197835870167,0.00462134877765,0.0,0.0,0.0,0.0,-0.0313328951597
1970/01/01/02:03:54.522000,92,0,0,world,8,1479,0.0,0.0,0.0,0.041650879376,0.263565316958,0.00310325208963,0.0,0.0,0.0,0.0,-0.0108318738639
1970/01/01/02:03:54.555000,93,0,0,world,8,1479,0.0,0.0,0.0,0.00993792905084,0.20468818141,0.00223213136258,0.0,0.0,0.0,0.0,-0.0418319515884
1970/01/01/02:03:54.585000,94,0,0,world,8,1479,0.0,0.0,0.0,0.0135837981035,0.201344875446,0.00163260519487,0.0,0.0,0.0,0.0,-0.0548872053623
1970/01/01/02:03:54.616000,95,0,0,world,8,1479,0.0,0.0,0.0,0.00146441617917,0.232454359476,0.00114859428865,0.0,0.0,0.0,0.0,-0.0616352744401
1970/01/01/02:03:54.663000,96,0,0,world,8,1479,0.0,0.0,0.0,-0.0371310371916,0.329649313994,0.000325489856433,0.0,0.0,0.0,0.0,-0.0812194496393
1970/01/01/02:03:54.689000,97,0,0,world,8,1479,0.0,0.0,0.0,-0.0570836702699,0.304215318704,0.000781077536776,0.0,0.0,0.0,0.0,-0.0976547077298
1970/01/01/02:03:54.735000,98,0,0,world,8,1479,0.0,0.0,0.0,-0.102852176923,0.556628161054,0.00142293589321,0.0,0.0,0.0,0.0,-0.0968830510974
1970/01/01/02:03:54.760000,99,0,0,world,8,1479,0.0,0.0,0.0,-0.126826294935,0.480409236801,0.00098694519437,0.0,0.0,0.0,0.0,-0.124553740025
1970/01/01/02:03:54.786000,100,0,0,world,8,1479,0.0,0.0,0.0,0.545395776547,-7.79466927962,0.0125830195752,0.0,0.0,0.0,0.0,-2.95331192017
1970/01/01/02:03:54.823000,101,0,0,world,8,1479,0.0,0.0,0.0,-0.145459413926,0.719599514788,0.00507804031312,0.0,0.0,0.0,0.0,-0.118322215974
1970/01/01/02:03:54.862000,102,0,0,world,8,1479,0.0,0.0,0.0,-0.103948089369,0.994069989349,0.014845365192,0.0,0.0,0.0,0.0,-0.0870854258537
1970/01/01/02:03:54.892000,103,0,0,world,8,1479,0.0,0.0,0.0,1.96258349014,-2.57213609523,0.0238170314363,0.0,0.0,0.0,0.0,-0.968943417072
1970/01/01/02:03:54.925000,104,0,0,world,8,1479,0.0,0.0,0.0,2.20416377127,-2.00662045605,0.0282971638273,0.0,0.0,0.0,0.0,-0.734219372272
1970/01/01/02:03:54.954000,105,0,0,world,8,1479,0.0,0.0,0.0,2.19332300868,-2.10986883547,0.0283113092851,0.0,0.0,0.0,0.0,-0.752370238304
1970/01/01/02:03:54.987000,106,0,0,world,8,1479,0.0,0.0,0.0,-0.0315820674311,0.993561806573,0.0307146933287,0.0,0.0,0.0,0.0,-0.0586197637022
1970/01/01/02:03:55.016000,107,0,0,world,8,1479,0.0,0.0,0.0,-0.0418636105548,0.882692869105,0.0297592398674,0.0,0.0,0.0,0.0,-0.074416488409
1970/01/01/02:03:55.059000,108,0,0,world,8,1479,0.0,0.0,0.0,-0.0457300905651,0.763876630015,0.0268200224659,0.0,0.0,0.0,0.0,-0.082924105227
1970/01/01/02:03:55.087000,109,0,0,world,8,1479,0.0,0.0,0.0,-0.0357088519568,0.72383665786,0.0224311929519,0.0,0.0,0.0,0.0,-0.070707641542
1970/01/01/02:03:55.126000,110,0,0,world,8,1479,0.0,0.0,0.0,-0.0267390927751,0.707440965216,0.017744826804,0.0,0.0,0.0,0.0,-0.0594107732177
1970/01/01/02:03:55.155000,111,0,0,world,8,1479,0.0,0.0,0.0,-0.0539844373413,0.590293875153,0.019736209404,0.0,0.0,0.0,0.0,-0.0792733803391
1970/01/01/02:03:55.188000,112,0,0,world,8,1479,0.0,0.0,0.0,-0.0693490855736,0.513992067704,0.0173096722243,0.0,0.0,0.0,0.0,-0.119080230594
1970/01/01/02:03:55.221000,113,0,0,world,8,1479,0.0,0.0,0.0,-0.027918994819,0.775487850334,0.00876080704757,0.0,0.0,0.0,0.0,-0.0562190823257
1970/01/01/02:03:55.254000,114,0,0,world,8,1479,0.0,0.0,0.0,-0.0364480469796,0.805495398648,0.00711695115484,0.0,0.0,0.0,0.0,-0.0654933229089
1970/01/01/02:03:55.287000,115,0,0,world,8,1479,0.0,0.0,0.0,-0.0453464934852,0.844652417851,0.00693192706656,0.0,0.0,0.0,0.0,-0.0669720396399
1970/01/01/02:03:55.320000,116,0,0,world,8,1479,0.0,0.0,0.0,-0.0539753592096,0.800988733577,0.0188391606931,0.0,0.0,0.0,0.0,-0.0762082412839
1970/01/01/02:03:55.352000,117,0,0,world,8,1479,0.0,0.0,0.0,-0.0456918114741,0.771002352535,0.0250596271109,0.0,0.0,0.0,0.0,-0.0712887793779
1970/01/01/02:03:55.386000,118,0,0,world,8,1479,0.0,0.0,0.0,-0.0412228934906,0.797268203995,0.0249771281189,0.0,0.0,0.0,0.0,-0.0634832382202
1970/01/01/02:03:55.424000,119,0,0,world,8,1479,0.0,0.0,0.0,-0.0589525311333,0.739069864944,0.0266693933128,0.0,0.0,0.0,0.0,-0.0975720062852
1970/01/01/02:03:55.459000,120,0,0,world,8,1479,0.0,0.0,0.0,-0.0436460286711,0.823550364976,0.0259757219351,0.0,0.0,0.0,0.0,-0.0704614371061
1970/01/01/02:03:55.491000,121,0,0,world,8,1479,0.0,0.0,0.0,-0.0672904466916,0.695964466437,0.0263792396041,0.0,0.0,0.0,0.0,-0.114265270531
1970/01/01/02:03:55.522000,122,0,0,world,8,1479,0.0,0.0,0.0,-0.046493501636,0.775629277924,0.0251780581761,0.0,0.0,0.0,0.0,-0.0686304494739
1970/01/01/02:03:55.554000,123,0,0,world,8,1479,0.0,0.0,0.0,-0.0543146527417,0.73777666188,0.0253231588079,0.0,0.0,0.0,0.0,-0.0763888433576
1970/01/01/02:03:55.587000,124,0,0,world,8,1479,0.0,0.0,0.0,-0.0595264409774,0.564352335738,0.0247827259546,0.0,0.0,0.0,0.0,-0.107352897525
1970/01/01/02:03:55.619000,125,0,0,world,8,1479,0.0,0.0,0.0,-0.0586735609335,0.525564459967,0.0241395715432,0.0,0.0,0.0,0.0,-0.101434804499
1970/01/01/02:03:55.654000,126,0,0,world,8,1479,0.0,0.0,0.0,-0.0468111174293,0.60317336064,0.019069665529,0.0,0.0,0.0,0.0,-0.0569768361747
1970/01/01/02:03:55.684000,127,0,0,world,8,1479,0.0,0.0,0.0,-0.038373774077,0.527456543302,0.0192917997237,0.0,0.0,0.0,0.0,-0.0742328092456
1970/01/01/02:03:55.730000,128,0,0,world,8,1479,0.0,0.0,0.0,-0.0114754761689,0.5857098003,0.0134732121817,0.0,0.0,0.0,0.0,-0.0033272979781
1970/01/01/02:03:55.754000,129,0,0,world,8,1479,0.0,0.0,0.0,0.000432408602127,0.482999062121,0.0106772756648,0.0,0.0,0.0,0.0,-0.0115188183263
1970/01/01/02:03:55.790000,130,0,0,world,8,1479,0.0,0.0,0.0,0.00715086891436,0.434429983167,0.00765644048578,0.0,0.0,0.0,0.0,-0.00062997295754
1970/01/01/02:03:55.825000,131,0,0,world,8,1479,0.0,0.0,0.0,0.0212058169945,0.338285490916,0.00560015968959,0.0,0.0,0.0,0.0,-0.0119218816981
1970/01/01/02:03:55.857000,132,0,0,world,8,1479,0.0,0.0,0.0,0.0374775089774,0.330279278963,0.00297374928152,0.0,0.0,0.0,0.0,0.00670421170071
1970/01/01/02:03:55.885000,133,0,0,world,8,1479,0.0,0.0,0.0,0.0662764346965,0.303837000016,0.0027998110292,0.0,0.0,0.0,0.0,-0.00854497216642
1970/01/01/02:03:55.917000,134,0,0,world,8,1479,0.0,0.0,0.0,0.0752889309065,0.292026616581,3.86924332915e-06,0.0,0.0,0.0,0.0,0.0445053167641
1970/01/01/02:03:55.954000,135,0,0,world,8,1479,0.0,0.0,0.0,0.103245204196,0.162301701696,-0.00029926438404,0.0,0.0,0.0,0.0,0.0232102442533
1970/01/01/02:03:55.987000,136,0,0,world,8,1479,0.0,0.0,0.0,0.122098474269,0.0915362849834,0.000154913456526,0.0,0.0,0.0,0.0,0.024247135967
1970/01/01/02:03:56.020000,137,0,0,world,8,1479,0.0,0.0,0.0,0.102032219057,0.0124008944978,0.00139695034173,0.0,0.0,0.0,0.0,0.0213507283479
1970/01/01/02:03:56.055000,138,0,0,world,8,1479,0.0,0.0,0.0,0.146877314391,0.0185840328816,0.00273570608793,0.0,0.0,0.0,0.0,0.038423679769
1970/01/01/02:03:56.089000,139,0,0,world,8,1479,0.0,0.0,0.0,0.169650036733,-0.0363149766217,0.00537176105332,0.0,0.0,0.0,0.0,0.0412471853197
1970/01/01/02:03:56.120000,140,0,0,world,8,1479,0.0,0.0,0.0,0.199814769011,-0.117768485873,0.00901131484457,0.0,0.0,0.0,0.0,0.0275342985988
1970/01/01/02:03:56.155000,141,0,0,world,8,1479,0.0,0.0,0.0,0.166475966452,-0.0862604513834,0.013808440708,0.0,0.0,0.0,0.0,0.0672837793827
1970/01/01/02:03:56.187000,142,0,0,world,8,1479,0.0,0.0,0.0,0.298621070305,-0.196484566195,0.0199465869748,0.0,0.0,0.0,0.0,0.0285429023206
1970/01/01/02:03:56.219000,143,0,0,world,8,1479,0.0,0.0,0.0,0.27932088644,-0.249897578919,0.0255327988757,0.0,0.0,0.0,0.0,0.032092217356
1970/01/01/02:03:56.255000,144,0,0,world,8,1479,0.0,0.0,0.0,0.341518699759,-0.305311676378,0.0269104430426,0.0,0.0,0.0,0.0,0.0115320216864
1970/01/01/02:03:56.286000,145,0,0,world,8,1479,0.0,0.0,0.0,0.335359273996,-0.306766144264,0.0297154286399,0.0,0.0,0.0,0.0,0.0204654596746
1970/01/01/02:03:56.318000,146,0,0,world,8,1479,0.0,0.0,0.0,0.315470729589,-0.221071508811,0.0377778461998,0.0,0.0,0.0,0.0,0.0575221739709
1970/01/01/02:03:56.352000,147,0,0,world,8,1479,0.0,0.0,0.0,0.315822008952,-0.366806175524,0.0404304216678,0.0,0.0,0.0,0.0,0.021309459582
1970/01/01/02:03:56.389000,148,0,0,world,8,1479,0.0,0.0,0.0,0.440222506132,-0.431301262448,0.039493044072,0.0,0.0,0.0,0.0,-0.0150843979791
1970/01/01/02:03:56.420000,149,0,0,world,8,1479,0.0,0.0,0.0,0.440181877173,-0.362915925218,0.0430885532813,0.0,0.0,0.0,0.0,0.00856109987944
1970/01/01/02:03:56.455000,150,0,0,world,8,1479,0.0,0.0,0.0,0.380139468178,-0.309299403428,0.0436269035442,0.0,0.0,0.0,0.0,0.0354652479291
1970/01/01/02:03:56.490000,151,0,0,world,8,1479,0.0,0.0,0.0,0.359074909754,-0.264006421386,0.043864661214,0.0,0.0,0.0,0.0,0.0546012967825
1970/01/01/02:03:56.555000,152,0,0,world,8,1479,0.0,0.0,0.0,0.372523567871,-0.23730149784,0.0442446304688,0.0,0.0,0.0,0.0,0.0584224686027
1970/01/01/02:03:56.590000,153,0,0,world,8,1479,0.0,0.0,0.0,0.214096238464,-0.0691496940136,0.0380597529524,0.0,0.0,0.0,0.0,0.122778855264
1970/01/01/02:03:56.621000,154,0,0,world,8,1479,0.0,0.0,0.0,0.0621672716723,-0.00441234591168,0.0331035051958,0.0,0.0,0.0,0.0,0.161386236548
1970/01/01/02:03:56.658000,155,0,0,world,8,1479,0.0,0.0,0.0,0.0749902970508,0.0709848444341,0.0300098279443,0.0,0.0,0.0,0.0,0.168514370918
1970/01/01/02:03:56.688000,156,0,0,world,8,1479,0.0,0.0,0.0,-0.0716534784078,0.185437077658,0.0245162016505,0.0,0.0,0.0,0.0,0.212421730161
1970/01/01/02:03:56.728000,157,0,0,world,8,1479,0.0,0.0,0.0,-0.0931058941806,0.287576289724,0.018093711536,0.0,0.0,0.0,0.0,0.221309378743
1970/01/01/02:03:56.755000,158,0,0,world,8,1479,0.0,0.0,0.0,-0.10238976144,0.359020107614,0.0127717888159,0.0,0.0,0.0,0.0,0.228513985872
1970/01/01/02:03:56.790000,159,0,0,world,8,1479,0.0,0.0,0.0,-0.0790748636045,0.354211512026,0.00833559971945,0.0,0.0,0.0,0.0,0.206300705671
1970/01/01/02:03:56.822000,160,0,0,world,8,1479,0.0,0.0,0.0,-0.0315113576503,0.317438590307,0.00277157697305,0.0,0.0,0.0,0.0,0.162023916841
1970/01/01/02:03:56.854000,161,0,0,world,8,1479,0.0,0.0,0.0,0.00988456354586,0.26078781112,0.00135865800214,0.0,0.0,0.0,0.0,0.112132050097
1970/01/01/02:03:56.889000,162,0,0,world,8,1479,0.0,0.0,0.0,0.0630761403077,0.238159400538,0.000292484578191,0.0,0.0,0.0,0.0,0.0706048905849
1970/01/01/02:03:56.920000,163,0,0,world,8,1479,0.0,0.0,0.0,0.119706098866,0.213451173251,0.000489255487608,0.0,0.0,0.0,0.0,0.0245380327106
1970/01/01/02:03:56.955000,164,0,0,world,8,1479,0.0,0.0,0.0,0.058969951815,0.195624611935,0.00370795825441,0.0,0.0,0.0,0.0,-0.00897930935025
1970/01/01/02:03:56.988000,165,0,0,world,8,1479,0.0,0.0,0.0,0.0448456461171,0.220884064972,0.00719745211982,0.0,0.0,0.0,0.0,-0.0243707876652
1970/01/01/02:03:57.024000,166,0,0,world,8,1479,0.0,0.0,0.0,0.0366322661084,0.266248788689,0.00659835697458,0.0,0.0,0.0,0.0,-0.0122887762263
1970/01/01/02:03:57.057000,167,0,0,world,8,1479,0.0,0.0,0.0,0.0408620357158,0.296964072434,0.00628810157591,0.0,0.0,0.0,0.0,-5.03047413076e-05
1970/01/01/02:03:57.087000,168,0,0,world,8,1479,0.0,0.0,0.0,0.0174175295194,0.262238640579,0.00557012341336,0.0,0.0,0.0,0.0,-0.00414759432897
1970/01/01/02:03:57.120000,169,0,0,world,8,1479,0.0,0.0,0.0,0.00454821140134,0.29664964189,0.00390695556399,0.0,0.0,0.0,0.0,0.0140837756917
1970/01/01/02:03:57.155000,170,0,0,world,8,1479,0.0,0.0,0.0,0.00849302244033,0.257549882415,0.00459509292758,0.0,0.0,0.0,0.0,0.00331096467562
1970/01/01/02:03:57.186000,171,0,0,world,8,1479,0.0,0.0,0.0,0.012494056422,0.2895387942,0.00296290672126,0.0,0.0,0.0,0.0,0.0180212445557
1970/01/01/02:03:57.219000,172,0,0,world,8,1479,0.0,0.0,0.0,0.0131593026383,0.200931493065,0.00323249993373,0.0,0.0,0.0,0.0,-0.00842180289328
1970/01/01/02:03:57.257000,173,0,0,world,8,1479,0.0,0.0,0.0,0.0447041523973,0.217446565935,0.00233582746062,0.0,0.0,0.0,0.0,0.0139786563814
1970/01/01/02:03:57.290000,174,0,0,world,8,1479,0.0,0.0,0.0,0.0457528350752,0.208322299663,0.00201465736956,0.0,0.0,0.0,0.0,0.0156075535342
1970/01/01/02:03:57.322000,175,0,0,world,8,1479,0.0,0.0,0.0,2.4083009736,-23.5365752854,-0.000333303865777,0.0,0.0,0.0,0.0,-8.51277256012
1970/01/01/02:03:57.356000,176,0,0,world,8,1479,0.0,0.0,0.0,0.248695515755,0.169730751878,0.000757481638552,0.0,0.0,0.0,0.0,0.0229645427316
1970/01/01/02:03:57.388000,177,0,0,world,8,1479,0.0,0.0,0.0,0.25344955927,0.128253990148,0.000204421435692,0.0,0.0,0.0,0.0,0.0205585267395
1970/01/01/02:03:57.419000,178,0,0,world,8,1479,0.0,0.0,0.0,0.0815435026093,0.088143021354,-0.000121478169084,0.0,0.0,0.0,0.0,0.0215088874102
1970/01/01/02:03:57.454000,179,0,0,world,8,1479,0.0,0.0,0.0,3.5244044864,-27.7899681467,-0.00312471800161,0.0,0.0,0.0,0.0,-9.89041614532
1970/01/01/02:03:57.487000,180,0,0,world,8,1479,0.0,0.0,0.0,0.152954518722,-0.0348730815944,-0.000173833867036,0.0,0.0,0.0,0.0,0.0088654095307
1970/01/01/02:03:57.520000,181,0,0,world,8,1479,0.0,0.0,0.0,4.26132883784,-31.8844836602,-0.00301103345522,0.0,0.0,0.0,0.0,-11.1372518539
1970/01/01/02:03:57.552000,182,0,0,world,8,1479,0.0,0.0,0.0,4.52821501223,-31.8837020941,-0.00258945532731,0.0,0.0,0.0,0.0,-11.0978193283
1970/01/01/02:03:57.588000,183,0,0,world,8,1479,0.0,0.0,0.0,5.05032429388,-31.8291276296,-0.00210558653223,0.0,0.0,0.0,0.0,-11.0747480392
1970/01/01/02:03:57.620000,184,0,0,world,8,1479,0.0,0.0,0.0,0.122054789961,-0.131861624609,0.00349019707419,0.0,0.0,0.0,0.0,0.0546411275864
1970/01/01/02:03:57.657000,185,0,0,world,8,1479,0.0,0.0,0.0,0.187122372717,-0.251436146904,0.0047919237056,0.0,0.0,0.0,0.0,0.0386698283255
1970/01/01/02:03:57.689000,186,0,0,world,8,1479,0.0,0.0,0.0,6.97757445979,-36.5807284732,0.00292828642783,0.0,0.0,0.0,0.0,-12.317861557
1970/01/01/02:03:57.730000,187,0,0,world,8,1479,0.0,0.0,0.0,7.58209048008,-36.1151642716,0.0047447589224,0.0,0.0,0.0,0.0,-12.1873025894
1970/01/01/02:03:57.753000,188,0,0,world,8,1479,0.0,0.0,0.0,0.811388771408,-0.407185231065,0.0126869797467,0.0,0.0,0.0,0.0,0.0059663313441
1970/01/01/02:03:57.788000,189,0,0,world,8,1479,0.0,0.0,0.0,8.11881328352,-38.2372089297,0.00883585191955,0.0,0.0,0.0,0.0,-12.6729316711
1970/01/01/02:03:57.825000,190,0,0,world,8,1479,0.0,0.0,0.0,8.38256850093,-37.8728618272,0.0101955211986,0.0,0.0,0.0,0.0,-12.5675477982
1970/01/01/02:03:57.862000,191,0,0,world,8,1479,0.0,0.0,0.0,0.999398562688,-0.329105770956,0.0190410452395,0.0,0.0,0.0,0.0,0.0487870201468
1970/01/01/02:03:57.891000,192,0,0,world,8,1479,0.0,0.0,0.0,0.40843177696,-0.382302912955,0.0226299757347,0.0,0.0,0.0,0.0,0.0531763285398
1970/01/01/02:03:57.924000,193,0,0,world,8,1479,0.0,0.0,0.0,8.95446860535,-39.9571083877,0.0185324424974,0.0,0.0,0.0,0.0,-12.9205980301
1970/01/01/02:03:57.956000,194,0,0,world,8,1479,0.0,0.0,0.0,0.361273572027,-0.454838115299,0.030795958626,0.0,0.0,0.0,0.0,0.0149486502632
1970/01/01/02:03:57.988000,195,0,0,world,8,1479,0.0,0.0,0.0,0.427442537344,-0.466563794576,0.0301143294461,0.0,0.0,0.0,0.0,-0.00637500034645
1970/01/01/02:03:58.030000,196,0,0,world,8,1479,0.0,0.0,0.0,0.437794183481,-0.28789662591,0.0287749246803,0.0,0.0,0.0,0.0,0.032100699842
1970/01/01/02:03:58.060000,197,0,0,world,8,1479,0.0,0.0,0.0,0.283746160315,-0.257744250164,0.0282513167805,0.0,0.0,0.0,0.0,0.0525355041027
1970/01/01/02:03:58.088000,198,0,0,world,8,1479,0.0,0.0,0.0,0.269175221318,-0.0759005228997,0.0265639714541,0.0,0.0,0.0,0.0,0.0976020544767
1970/01/01/02:03:58.127000,199,0,0,world,8,1479,0.0,0.0,0.0,0.223118904727,-0.0617613578785,0.0206764611776,0.0,0.0,0.0,0.0,0.0915126204491
1970/01/01/02:03:58.162000,200,0,0,world,8,1479,0.0,0.0,0.0,0.081611551665,0.0899041961637,0.0177386534971,0.0,0.0,0.0,0.0,0.135223343968
1970/01/01/02:03:58.192000,201,0,0,world,8,1479,0.0,0.0,0.0,0.0488083840764,0.239679756503,0.0103781070366,0.0,0.0,0.0,0.0,0.157793626189
1970/01/01/02:03:58.223000,202,0,0,world,8,1479,0.0,0.0,0.0,0.121599087401,0.229929645069,0.00595143488646,0.0,0.0,0.0,0.0,0.110443614423
1970/01/01/02:03:58.259000,203,0,0,world,8,1479,0.0,0.0,0.0,0.046223587587,0.187733944548,-0.0016519400161,0.0,0.0,0.0,0.0,0.0359299629927
1970/01/01/02:03:58.289000,204,0,0,world,8,1479,0.0,0.0,0.0,0.0755494220653,0.161854768819,-0.00260703097137,0.0,0.0,0.0,0.0,0.021808790043
1970/01/01/02:03:58.326000,205,0,0,world,8,1479,0.0,0.0,0.0,0.0707714575188,0.183559257693,-0.00183650613251,0.0,0.0,0.0,0.0,-0.00586673198268
1970/01/01/02:03:58.359000,206,0,0,world,8,1479,0.0,0.0,0.0,0.165316987348,0.193989310115,0.00534871013211,0.0,0.0,0.0,0.0,-0.110982276499
1970/01/01/02:03:58.396000,207,0,0,world,8,1479,0.0,0.0,0.0,0.140012984518,0.310041140468,0.0123399145536,0.0,0.0,0.0,0.0,-0.122304797173
1970/01/01/02:03:58.429000,208,0,0,world,8,1479,0.0,0.0,0.0,0.189273852134,0.39432909089,0.0191202309866,0.0,0.0,0.0,0.0,-0.133404880762
1970/01/01/02:03:58.461000,209,0,0,world,8,1479,0.0,0.0,0.0,0.150762899948,0.524645674444,0.0275710875335,0.0,0.0,0.0,0.0,-0.127165943384
1970/01/01/02:03:58.485000,210,0,0,world,8,1479,0.0,0.0,0.0,0.142229250216,0.545294902248,0.028833684196,0.0,0.0,0.0,0.0,-0.100931100547
1970/01/01/02:03:58.518000,211,0,0,world,8,1479,0.0,0.0,0.0,0.120125919244,0.576365049617,0.0299523717906,0.0,0.0,0.0,0.0,-0.0933562070131
1970/01/01/02:03:58.563000,212,0,0,world,8,1479,0.0,0.0,0.0,0.0802965112881,0.625564123682,0.0396904774756,0.0,0.0,0.0,0.0,-0.110494822264
1970/01/01/02:03:58.594000,213,0,0,world,8,1479,0.0,0.0,0.0,0.0644222664687,0.66931862976,0.0475319381833,0.0,0.0,0.0,0.0,-0.112610340118
1970/01/01/02:03:58.629000,214,0,0,world,8,1479,0.0,0.0,0.0,0.0822418283634,0.809385159472,0.0516708895013,0.0,0.0,0.0,0.0,-0.0849552080035
1970/01/01/02:03:58.661000,215,0,0,world,8,1479,0.0,0.0,0.0,0.0667060233109,0.777232758659,0.057768242937,0.0,0.0,0.0,0.0,-0.113835759461
1970/01/01/02:03:58.694000,216,0,0,world,8,1479,0.0,0.0,0.0,0.104124763868,0.903892104489,0.063354932805,0.0,0.0,0.0,0.0,-0.104050181806
1970/01/01/02:03:58.732000,217,0,0,world,8,1479,0.0,0.0,0.0,0.0841841053134,0.946574343894,0.0665991898381,0.0,0.0,0.0,0.0,-0.0998692885041
1970/01/01/02:03:58.768000,218,0,0,world,8,1479,0.0,0.0,0.0,0.096139475696,0.958563075822,0.07075603822,0.0,0.0,0.0,0.0,-0.0977063700557
1970/01/01/02:03:58.796000,219,0,0,world,8,1479,0.0,0.0,0.0,0.0734847028552,0.949812300709,0.0751888255107,0.0,0.0,0.0,0.0,-0.103823184967
1970/01/01/02:03:58.822000,220,0,0,world,8,1479,0.0,0.0,0.0,0.0589191690529,0.905686977498,0.0786377492636,0.0,0.0,0.0,0.0,-0.117460004985
1970/01/01/02:03:58.857000,221,0,0,world,8,1479,0.0,0.0,0.0,0.0242567008272,0.85572088633,0.0851944551601,0.0,0.0,0.0,0.0,-0.145214825869
1970/01/01/02:03:58.890000,222,0,0,world,8,1479,0.0,0.0,0.0,0.00812001859556,0.829002514234,0.0859857090055,0.0,0.0,0.0,0.0,-0.144459873438
1970/01/01/02:03:58.919000,223,0,0,world,8,1479,0.0,0.0,0.0,-0.0321268269724,0.731621871161,0.0867065937874,0.0,0.0,0.0,0.0,-0.162575602531
1970/01/01/02:03:58.953000,224,0,0,world,8,1479,0.0,0.0,0.0,-0.0660426339334,0.531949538467,0.0792538513475,0.0,0.0,0.0,0.0,-0.190968826413
1970/01/01/02:03:58.990000,225,0,0,world,8,1479,0.0,0.0,0.0,-0.0223130244508,0.522518928208,0.0690639903381,0.0,0.0,0.0,0.0,-0.166712880135
1970/01/01/02:03:59.025000,226,0,0,world,8,1479,0.0,0.0,0.0,0.00324516137609,0.526428155684,0.0598614798096,0.0,0.0,0.0,0.0,-0.130077183247
1970/01/01/02:03:59.057000,227,0,0,world,8,1479,0.0,0.0,0.0,0.0223851676322,0.483516574666,0.0472413458563,0.0,0.0,0.0,0.0,-0.113153360784
1970/01/01/02:03:59.091000,228,0,0,world,8,1479,0.0,0.0,0.0,0.078575127667,0.503968272954,0.0325598450189,0.0,0.0,0.0,0.0,-0.0746859163046
1970/01/01/02:03:59.124000,229,0,0,world,8,1479,0.0,0.0,0.0,0.0976060256819,0.434260626721,0.0242623822718,0.0,0.0,0.0,0.0,-0.0661932602525
1970/01/01/02:03:59.161000,230,0,0,world,8,1479,0.0,0.0,0.0,0.152559688631,0.477916831242,0.0156856692791,0.0,0.0,0.0,0.0,-0.0202016234398
1970/01/01/02:03:59.183000,231,0,0,world,8,1479,0.0,0.0,0.0,0.180900834098,0.368198043651,0.00985002999423,0.0,0.0,0.0,0.0,-0.0418343134224
1970/01/01/02:03:59.233000,232,0,0,world,8,1479,0.0,0.0,0.0,0.248480089424,0.402964623248,0.00655552870947,0.0,0.0,0.0,0.0,-0.0111644444987
1970/01/01/02:03:59.259000,233,0,0,world,8,1479,0.0,0.0,0.0,0.26612330821,0.367294111065,0.0039071093508,0.0,0.0,0.0,0.0,-0.00914715696126
1970/01/01/02:03:59.289000,234,0,0,world,8,1479,0.0,0.0,0.0,0.352287217392,0.38795907598,0.00158644849845,0.0,0.0,0.0,0.0,0.00411116611212
1970/01/01/02:03:59.325000,235,0,0,world,8,1479,0.0,0.0,0.0,0.345495529196,0.217835060638,-0.000189174156035,0.0,0.0,0.0,0.0,-0.0393563248217
1970/01/01/02:03:59.358000,236,0,0,world,8,1479,0.0,0.0,0.0,0.376625622752,0.274878615308,-0.00202610508771,0.0,0.0,0.0,0.0,-0.00854022800922
1970/01/01/02:03:59.404000,237,0,0,world,8,1479,0.0,0.0,0.0,0.390544729659,0.278357666503,-0.00432880347445,0.0,0.0,0.0,0.0,-0.00553302839398
1970/01/01/02:03:59.424000,238,0,0,world,8,1479,0.0,0.0,0.0,0.431242469506,0.279866491963,-0.00534327245986,0.0,0.0,0.0,0.0,0.003105716547
1970/01/01/02:03:59.454000,239,0,0,world,8,1479,0.0,0.0,0.0,0.473593896146,0.253392199589,-0.00780281622439,0.0,0.0,0.0,0.0,-0.00409099366516
1970/01/01/02:03:59.493000,240,0,0,world,8,1479,0.0,0.0,0.0,0.484579802167,0.157349694093,-0.00812699468263,0.0,0.0,0.0,0.0,-0.0321789421141
1970/01/01/02:03:59.528000,241,0,0,world,8,1479,0.0,0.0,0.0,0.522808604463,0.177726544825,-0.00945707196398,0.0,0.0,0.0,0.0,-0.0280782040209
1970/01/01/02:03:59.558000,242,0,0,world,8,1479,0.0,0.0,0.0,0.516348434987,0.16967555495,-0.00980263890757,0.0,0.0,0.0,0.0,-0.0227904710919
1970/01/01/02:03:59.592000,243,0,0,world,8,1479,0.0,0.0,0.0,0.5317175884,0.140801568988,-0.0108518571878,0.0,0.0,0.0,0.0,-0.0282988492399
1970/01/01/02:03:59.629000,244,0,0,world,8,1479,0.0,0.0,0.0,0.566401944746,0.231950539581,-0.0105877949216,0.0,0.0,0.0,0.0,-0.00312449433841
1970/01/01/02:03:59.660000,245,0,0,world,8,1479,0.0,0.0,0.0,0.534229639852,0.220193786065,-0.00809857540124,0.0,0.0,0.0,0.0,0.0032748717349
1970/01/01/02:03:59.690000,246,0,0,world,8,1479,0.0,0.0,0.0,0.492408480119,0.181585912876,-0.0076041932997,0.0,0.0,0.0,0.0,0.00183325866237
1970/01/01/02:03:59.736000,247,0,0,world,8,1479,0.0,0.0,0.0,0.502481960774,0.203317685313,-0.00795054928247,0.0,0.0,0.0,0.0,0.0041515273042
1970/01/01/02:03:59.759000,248,0,0,world,8,1479,0.0,0.0,0.0,0.495624915188,0.244190666877,-0.00859242070131,0.0,0.0,0.0,0.0,0.0102909160778
1970/01/01/02:03:59.788000,249,0,0,world,8,1479,0.0,0.0,0.0,0.436598982503,0.313943558492,-0.00690577129197,0.0,0.0,0.0,0.0,0.0319070033729
1970/01/01/02:03:59.826000,250,0,0,world,8,1479,0.0,0.0,0.0,0.40070146769,0.34410739096,-0.00643908269781,0.0,0.0,0.0,0.0,0.0389340557158
1970/01/01/02:03:59.857000,251,0,0,world,8,1479,0.0,0.0,0.0,0.303238563542,0.374276949164,-0.00758651712392,0.0,0.0,0.0,0.0,0.0535137988627
1970/01/01/02:03:59.887000,252,0,0,world,8,1479,0.0,0.0,0.0,0.320794978224,0.316449805289,-0.00707855629091,0.0,0.0,0.0,0.0,0.0166418049484
1970/01/01/02:03:59.928000,253,0,0,world,8,1479,0.0,0.0,0.0,0.360416750421,0.379175340325,-0.00614855877055,0.0,0.0,0.0,0.0,0.0250968653709
1970/01/01/02:03:59.999000,254,0,0,world,8,1479,0.0,0.0,0.0,0.368118295107,0.279970574707,-0.00338031150881,0.0,0.0,0.0,0.0,-0.0311919618398
1970/01/01/02:04:00.030000,255,0,0,world,8,1479,0.0,0.0,0.0,0.347650397853,0.275468950169,-0.0015123264335,0.0,0.0,0.0,0.0,-0.035283409059
1970/01/01/02:04:00.062000,256,0,0,world,8,1479,0.0,0.0,0.0,0.404133599225,0.299627718362,0.000299348075619,0.0,0.0,0.0,0.0,-0.0455955043435
1970/01/01/02:04:00.105000,257,0,0,world,8,1479,0.0,0.0,0.0,0.421339818198,0.26769189642,0.00149560885162,0.0,0.0,0.0,0.0,-0.0552980937064
1970/01/01/02:04:00.127000,258,0,0,world,8,1479,0.0,0.0,0.0,0.416036082639,0.337114458613,0.00251685698124,0.0,0.0,0.0,0.0,-0.0297752693295
1970/01/01/02:04:00.161000,259,0,0,world,8,1479,0.0,0.0,0.0,0.428343652604,0.216718803235,0.00284050141127,0.0,0.0,0.0,0.0,-0.0662230849266
1970/01/01/02:04:00.191000,260,0,0,world,8,1479,0.0,0.0,0.0,0.418164855585,0.318099761627,0.00287397289054,0.0,0.0,0.0,0.0,-0.0300529189408
1970/01/01/02:04:00.227000,261,0,0,world,8,1479,0.0,0.0,0.0,0.418991242717,0.269081624624,0.00243492992121,0.0,0.0,0.0,0.0,-0.0417716577649
1970/01/01/02:04:00.260000,262,0,0,world,8,1479,0.0,0.0,0.0,0.481758383907,0.202939912127,0.00171689374095,0.0,0.0,0.0,0.0,-0.0695433840156
1970/01/01/02:04:00.291000,263,0,0,world,8,1479,0.0,0.0,0.0,0.491424518863,0.160366020157,0.000596581077831,0.0,0.0,0.0,0.0,-0.0819606408477
1970/01/01/02:04:00.321000,264,0,0,world,8,1479,0.0,0.0,0.0,0.44999017067,0.253813457188,0.000521745290675,0.0,0.0,0.0,0.0,-0.0343409888446
1970/01/01/02:04:00.365000,265,0,0,world,8,1479,0.0,0.0,0.0,0.485416312084,0.267139602515,2.73867176302e-05,0.0,0.0,0.0,0.0,-0.0282887946814
1970/01/01/02:04:00.395000,266,0,0,world,8,1479,0.0,0.0,0.0,0.532544575972,0.247433451498,6.3686931136e-05,0.0,0.0,0.0,0.0,-0.0296575482935
1970/01/01/02:04:00.424000,267,0,0,world,8,1479,0.0,0.0,0.0,0.560203477305,0.110058986837,0.00047827245838,0.0,0.0,0.0,0.0,-0.0792782083154
1970/01/01/02:04:00.454000,268,0,0,world,8,1479,0.0,0.0,0.0,0.524464054701,0.1852389857,-0.00127374315402,0.0,0.0,0.0,0.0,-0.0431363917887
1970/01/01/02:04:00.494000,269,0,0,world,8,1479,0.0,0.0,0.0,0.555683487092,0.23778866178,-0.00148874217917,0.0,0.0,0.0,0.0,-0.0302192065865
1970/01/01/02:04:00.526000,270,0,0,world,8,1479,0.0,0.0,0.0,0.556196561953,0.180914730609,-0.00163835391937,0.0,0.0,0.0,0.0,-0.0453299991786
1970/01/01/02:04:00.563000,271,0,0,world,8,1479,0.0,0.0,0.0,0.508348660042,0.286697053516,-0.00232463187248,0.0,0.0,0.0,0.0,0.00234998832457
1970/01/01/02:04:00.593000,272,0,0,world,8,1479,0.0,0.0,0.0,0.5041744315,0.296323014047,-0.00276118007267,0.0,0.0,0.0,0.0,0.00663314107805
1970/01/01/02:04:00.627000,273,0,0,world,8,1479,0.0,0.0,0.0,0.501509163219,0.30290397109,-0.00311987851481,0.0,0.0,0.0,0.0,0.00942070130259
1970/01/01/02:04:00.658000,274,0,0,world,8,1479,0.0,0.0,0.0,0.488165566704,0.322019086072,-0.00360063392529,0.0,0.0,0.0,0.0,0.0143290329725
1970/01/01/02:04:00.699000,275,0,0,world,8,1479,0.0,0.0,0.0,0.48506443759,0.270519851484,-0.00387995595113,0.0,0.0,0.0,0.0,-0.0115202190354
1970/01/01/02:04:00.743000,276,0,0,world,8,1479,0.0,0.0,0.0,0.470188466449,0.327646109503,-0.00472811881669,0.0,0.0,0.0,0.0,-0.0145322373137
1970/01/01/02:04:00.769000,277,0,0,world,8,1479,0.0,0.0,0.0,0.413391909012,0.298574477963,-0.00370221960878,0.0,0.0,0.0,0.0,-0.0166939478368
1970/01/01/02:04:00.793000,278,0,0,world,8,1479,0.0,0.0,0.0,0.384094739107,0.405797408165,-0.00421832326039,0.0,0.0,0.0,0.0,0.0238176975399
1970/01/01/02:04:00.822000,279,0,0,world,8,1479,0.0,0.0,0.0,0.393225303478,0.407259245183,-0.00356550788437,0.0,0.0,0.0,0.0,0.0162878055125
1970/01/01/02:04:00.855000,280,0,0,world,8,1479,0.0,0.0,0.0,0.392629045349,0.374282876087,-0.00244459318043,0.0,0.0,0.0,0.0,-0.0032723902259
1970/01/01/02:04:00.897000,281,0,0,world,8,1479,0.0,0.0,0.0,0.432757714275,0.277798239161,-0.000977445729106,0.0,0.0,0.0,0.0,-0.0403305739164
1970/01/01/02:04:00.926000,282,0,0,world,8,1479,0.0,0.0,0.0,0.408344519426,0.274169005679,0.000474929906826,0.0,0.0,0.0,0.0,-0.0415126420557
1970/01/01/02:04:00.964000,283,0,0,world,8,1479,0.0,0.0,0.0,0.403100603864,0.243038272109,0.00180345745416,0.0,0.0,0.0,0.0,-0.0610308796167
1970/01/01/02:04:00.992000,284,0,0,world,8,1479,0.0,0.0,0.0,0.41873867991,0.225436378038,0.00306858923961,0.0,0.0,0.0,0.0,-0.0778512582183
1970/01/01/02:04:01.021000,285,0,0,world,8,1479,0.0,0.0,0.0,0.415739369848,0.216744981725,0.00396100328495,0.0,0.0,0.0,0.0,-0.0781978145242
1970/01/01/02:04:01.053000,286,0,0,world,8,1479,0.0,0.0,0.0,0.391391588718,0.358650225689,0.00493890894953,0.0,0.0,0.0,0.0,-0.0181632917374
1970/01/01/02:04:01.089000,287,0,0,world,8,1479,0.0,0.0,0.0,0.440409208901,0.308359157151,0.00519075838842,0.0,0.0,0.0,0.0,-0.0344673208892
1970/01/01/02:04:01.121000,288,0,0,world,8,1479,0.0,0.0,0.0,0.410930191644,0.281466709776,0.00535205024361,0.0,0.0,0.0,0.0,-0.0257307495922
1970/01/01/02:04:01.154000,289,0,0,world,8,1479,0.0,0.0,0.0,0.428029334011,0.355226090778,0.00579877474624,0.0,0.0,0.0,0.0,0.00393161643296
1970/01/01/02:04:01.186000,290,0,0,world,8,1479,0.0,0.0,0.0,0.427712010175,0.335886886284,0.00545937360905,0.0,0.0,0.0,0.0,-0.00193428352941
1970/01/01/02:04:01.224000,291,0,0,world,8,1479,0.0,0.0,0.0,0.428971734634,0.339074266682,0.00498037263451,0.0,0.0,0.0,0.0,-0.0025784636382
1970/01/01/02:04:01.261000,292,0,0,world,8,1479,0.0,0.0,0.0,0.436281660413,0.275755983785,0.00429359027651,0.0,0.0,0.0,0.0,-0.0284791756421
1970/01/01/02:04:01.285000,293,0,0,world,8,1479,0.0,0.0,0.0,0.416929662999,0.292880186897,0.00352549085327,0.0,0.0,0.0,0.0,-0.0276011805981
1970/01/01/02:04:01.328000,294,0,0,world,8,1479,0.0,0.0,0.0,0.431081468122,0.296331094456,0.00300913527877,0.0,0.0,0.0,0.0,-0.0365421026945
1970/01/01/02:04:01.366000,295,0,0,world,8,1479,0.0,0.0,0.0,0.393482658,0.383224631175,0.0022210041224,0.0,0.0,0.0,0.0,-0.00560983503237
1970/01/01/02:04:01.391000,296,0,0,world,8,1479,0.0,0.0,0.0,0.393380900672,0.383745267779,0.00222157316445,0.0,0.0,0.0,0.0,-0.00542788440362
1970/01/01/02:04:01.425000,297,0,0,world,8,1479,0.0,0.0,0.0,0.393797115111,0.384999882314,0.00204457329518,0.0,0.0,0.0,0.0,-0.00485259527341
1970/01/01/02:04:01.466000,298,0,0,world,8,1479,0.0,0.0,0.0,0.423054526485,0.313632324523,0.00189791878241,0.0,0.0,0.0,0.0,-0.0445655584335
1970/01/01/02:04:01.494000,299,0,0,world,8,1479,0.0,0.0,0.0,0.440806114197,0.382332437531,0.00194535726606,0.0,0.0,0.0,0.0,-0.0130185959861
1970/01/01/02:04:01.528000,300,0,0,world,8,1479,0.0,0.0,0.0,0.437221209728,0.29231461769,0.00210194845508,0.0,0.0,0.0,0.0,-0.0520264655352
1970/01/01/02:04:01.564000,301,0,0,world,8,1479,0.0,0.0,0.0,0.430247712173,0.383850062139,0.00277525683174,0.0,0.0,0.0,0.0,-0.0289128236473
1970/01/01/02:04:01.595000,302,0,0,world,8,1479,0.0,0.0,0.0,0.419129069223,0.377859103844,0.00264490256376,0.0,0.0,0.0,0.0,-0.0299911852926
1970/01/01/02:04:01.624000,303,0,0,world,8,1479,0.0,0.0,0.0,0.418054683601,0.379074862667,0.00264629930096,0.0,0.0,0.0,0.0,-0.0295535437763
1970/01/01/02:04:01.660000,304,0,0,world,8,1479,0.0,0.0,0.0,0.417393208056,0.382983918052,0.00234801173443,0.0,0.0,0.0,0.0,-0.0278200376779
1970/01/01/02:04:01.691000,305,0,0,world,8,1479,0.0,0.0,0.0,0.395903359531,0.342828152045,0.00232537007752,0.0,0.0,0.0,0.0,-0.0383333303034
1970/01/01/02:04:01.730000,306,0,0,world,8,1479,0.0,0.0,0.0,0.443354415284,0.397880316842,0.00188342289464,0.0,0.0,0.0,0.0,-0.0377193838358
1970/01/01/02:04:01.763000,307,0,0,world,8,1479,0.0,0.0,0.0,0.418060044762,0.332489092379,0.00258551237746,0.0,0.0,0.0,0.0,-0.0560298338532
1970/01/01/02:04:01.793000,308,0,0,world,8,1479,0.0,0.0,0.0,0.4187229857,0.328999096234,0.00277920736702,0.0,0.0,0.0,0.0,-0.056599073112
1970/01/01/02:04:01.833000,309,0,0,world,8,1479,0.0,0.0,0.0,0.465714229359,0.353612202812,0.0025088605012,0.0,0.0,0.0,0.0,-0.0597055703402
1970/01/01/02:04:01.859000,310,0,0,world,8,1479,0.0,0.0,0.0,0.466433451355,0.314311719867,0.00270162321838,0.0,0.0,0.0,0.0,-0.075195543468
1970/01/01/02:04:01.902000,311,0,0,world,8,1479,0.0,0.0,0.0,0.498298911394,0.428047025369,0.00215968001074,0.0,0.0,0.0,0.0,-0.0382321514189
1970/01/01/02:04:01.923000,312,0,0,world,8,1479,0.0,0.0,0.0,0.506766839226,0.410974640887,0.00266029200832,0.0,0.0,0.0,0.0,-0.047062754631
1970/01/01/02:04:01.960000,313,0,0,world,8,1479,0.0,0.0,0.0,0.510401062007,0.308457511523,0.00110254485574,0.0,0.0,0.0,0.0,-0.0792277827859
1970/01/01/02:04:01.990000,314,0,0,world,8,1479,0.0,0.0,0.0,0.531789692447,0.420285711366,0.00016976706875,0.0,0.0,0.0,0.0,-0.0427818261087
1970/01/01/02:04:02.030000,315,0,0,world,8,1479,0.0,0.0,0.0,0.53175518521,0.434710323284,-0.000933082991111,0.0,0.0,0.0,0.0,-0.0412170365453
1970/01/01/02:04:02.065000,316,0,0,world,8,1479,0.0,0.0,0.0,0.56732044592,0.368371380253,-0.00213471493154,0.0,0.0,0.0,0.0,-0.0774302184582
1970/01/01/02:04:02.091000,317,0,0,world,8,1479,0.0,0.0,0.0,0.512981897632,0.511865329008,-0.00322204628577,0.0,0.0,0.0,0.0,-0.0197543408722
1970/01/01/02:04:02.125000,318,0,0,world,8,1479,0.0,0.0,0.0,0.586175682626,0.4692019584,-0.00424033378941,0.0,0.0,0.0,0.0,-0.0464090891182
1970/01/01/02:04:02.173000,319,0,0,world,8,1479,0.0,0.0,0.0,0.588075638631,0.471631859435,-0.00525611288728,0.0,0.0,0.0,0.0,-0.0515328161418
1970/01/01/02:04:02.200000,320,0,0,world,8,1479,0.0,0.0,0.0,0.590022397943,0.474660276066,-0.00591881143635,0.0,0.0,0.0,0.0,-0.0568313263357
1970/01/01/02:04:02.226000,321,0,0,world,8,1479,0.0,0.0,0.0,0.590828536643,0.486147324723,-0.00632855126128,0.0,0.0,0.0,0.0,-0.0624280162156
1970/01/01/02:04:02.262000,322,0,0,world,8,1479,0.0,0.0,0.0,0.563059907158,0.471861180059,-0.00697176787458,0.0,0.0,0.0,0.0,-0.0670212730765
1970/01/01/02:04:02.289000,323,0,0,world,8,1479,0.0,0.0,0.0,0.604748189596,0.532589468736,-0.0074350856409,0.0,0.0,0.0,0.0,-0.0596585795283
1970/01/01/02:04:02.328000,324,0,0,world,8,1479,0.0,0.0,0.0,0.585297904869,0.485591274588,-0.00744742884653,0.0,0.0,0.0,0.0,-0.078777000308
1970/01/01/02:04:02.367000,325,0,0,world,8,1479,0.0,0.0,0.0,0.616911841351,0.511090920684,-0.00768504118581,0.0,0.0,0.0,0.0,-0.0791292339563
1970/01/01/02:04:02.394000,326,0,0,world,8,1479,0.0,0.0,0.0,0.588057941869,0.477790258792,-0.00703088803975,0.0,0.0,0.0,0.0,-0.0874749198556
1970/01/01/02:04:02.435000,327,0,0,world,8,1479,0.0,0.0,0.0,0.572449515884,0.554097608664,-0.00690048799718,0.0,0.0,0.0,0.0,-0.056112639606
1970/01/01/02:04:02.471000,328,0,0,world,8,1479,0.0,0.0,0.0,0.562865899367,0.612431069154,-0.00651620218097,0.0,0.0,0.0,0.0,-0.0333026535809
1970/01/01/02:04:02.491000,329,0,0,world,8,1479,0.0,0.0,0.0,0.53148813604,0.558580312196,-0.00639513598556,0.0,0.0,0.0,0.0,-0.0400967635214
1970/01/01/02:04:02.524000,330,0,0,world,8,1479,0.0,0.0,0.0,0.508218181323,0.519026672275,-0.0054997212175,0.0,0.0,0.0,0.0,-0.0485446974635
1970/01/01/02:04:02.564000,331,0,0,world,8,1479,0.0,0.0,0.0,0.537741377543,0.589560059023,-0.00456777827842,0.0,0.0,0.0,0.0,-0.0343177467585
1970/01/01/02:04:02.600000,332,0,0,world,8,1479,0.0,0.0,0.0,0.547091819712,0.576115770079,-0.00347943772217,0.0,0.0,0.0,0.0,-0.040857527405
1970/01/01/02:04:02.622000,333,0,0,world,8,1479,0.0,0.0,0.0,0.602035680781,0.538883863701,-0.00171705751554,0.0,0.0,0.0,0.0,-0.0535710640252
1970/01/01/02:04:02.660000,334,0,0,world,8,1479,0.0,0.0,0.0,0.600760955471,0.522054448952,-9.42090748865e-05,0.0,0.0,0.0,0.0,-0.0584445856512
1970/01/01/02:04:02.699000,335,0,0,world,8,1479,0.0,0.0,0.0,0.595969590121,0.516671227301,0.00077540732353,0.0,0.0,0.0,0.0,-0.0591972209513
1970/01/01/02:04:02.734000,336,0,0,world,8,1479,0.0,0.0,0.0,0.598909678254,0.48978369527,0.000816997698409,0.0,0.0,0.0,0.0,-0.0711874365807
1970/01/01/02:04:02.764000,337,0,0,world,8,1479,0.0,0.0,0.0,0.611083250516,0.530602229249,-0.000194893880089,0.0,0.0,0.0,0.0,-0.0555904917419
1970/01/01/02:04:02.790000,338,0,0,world,8,1479,0.0,0.0,0.0,0.582927309115,0.574214793432,-0.00128268644248,0.0,0.0,0.0,0.0,-0.0267269294709
1970/01/01/02:04:02.827000,339,0,0,world,8,1479,0.0,0.0,0.0,0.568496879328,0.587268679525,-0.00296601087832,0.0,0.0,0.0,0.0,-0.0231909938157
1970/01/01/02:04:02.866000,340,0,0,world,8,1479,0.0,0.0,0.0,0.605400751056,0.537719258728,-0.00395351456113,0.0,0.0,0.0,0.0,-0.0448103733361
1970/01/01/02:04:02.896000,341,0,0,world,8,1479,0.0,0.0,0.0,0.614446531158,0.522474904263,-0.00446981991647,0.0,0.0,0.0,0.0,-0.0526550188661
1970/01/01/02:04:02.923000,342,0,0,world,8,1479,0.0,0.0,0.0,0.615115510547,0.520965036202,-0.00442974301354,0.0,0.0,0.0,0.0,-0.0548928976059
1970/01/01/02:04:02.961000,343,0,0,world,8,1479,0.0,0.0,0.0,0.625512442033,0.510553159641,-0.00423603054067,0.0,0.0,0.0,0.0,-0.060216806829
1970/01/01/02:04:02.993000,344,0,0,world,8,1479,0.0,0.0,0.0,0.654244929535,0.544528838329,-0.0051162337562,0.0,0.0,0.0,0.0,-0.0516858436167
1970/01/01/02:04:03.027000,345,0,0,world,8,1479,0.0,0.0,0.0,0.612387579576,0.61299246915,-0.00534849625534,0.0,0.0,0.0,0.0,-0.0261641461402
1970/01/01/02:04:03.066000,346,0,0,world,8,1479,0.0,0.0,0.0,0.622622260738,0.53616943418,-0.00593463803106,0.0,0.0,0.0,0.0,-0.046934120357
1970/01/01/02:04:03.092000,347,0,0,world,8,1479,0.0,0.0,0.0,0.61618587108,0.540513124557,-0.00697029127003,0.0,0.0,0.0,0.0,-0.0406642146409
1970/01/01/02:04:03.124000,348,0,0,world,8,1479,0.0,0.0,0.0,0.616085416413,0.543597922778,-0.00747128271579,0.0,0.0,0.0,0.0,-0.0415518730879
1970/01/01/02:04:03.160000,349,0,0,world,8,1479,0.0,0.0,0.0,0.607219641911,0.60662295614,-0.00752104027355,0.0,0.0,0.0,0.0,-0.0185420140624
1970/01/01/02:04:03.195000,350,0,0,world,8,1479,0.0,0.0,0.0,0.623276526239,0.525767608103,-0.00748252538547,0.0,0.0,0.0,0.0,-0.0497873872519
1970/01/01/02:04:03.227000,351,0,0,world,8,1479,0.0,0.0,0.0,0.625000841943,0.517252879425,-0.00705852848831,0.0,0.0,0.0,0.0,-0.0517368838191
1970/01/01/02:04:03.259000,352,0,0,world,8,1479,0.0,0.0,0.0,0.673368510865,0.59116403654,-0.00677016075615,0.0,0.0,0.0,0.0,-0.051526337862
1970/01/01/02:04:03.295000,353,0,0,world,8,1479,0.0,0.0,0.0,0.68982260457,0.393637071345,-0.00590727994189,0.0,0.0,0.0,0.0,-0.119237430394
1970/01/01/02:04:03.326000,354,0,0,world,8,1479,0.0,0.0,0.0,0.692580380567,0.572332401107,-0.00566499219122,0.0,0.0,0.0,0.0,-0.0568423829973
1970/01/01/02:04:03.357000,355,0,0,world,8,1479,0.0,0.0,0.0,0.741271891939,0.43673691755,-0.00582530373648,0.0,0.0,0.0,0.0,-0.108111917973
1970/01/01/02:04:03.387000,356,0,0,world,8,1479,0.0,0.0,0.0,0.710238806276,0.398297833927,-0.00620863353827,0.0,0.0,0.0,0.0,-0.112363018095
1970/01/01/02:04:03.424000,357,0,0,world,8,1479,0.0,0.0,0.0,0.715968032401,0.506639984765,-0.00721222866413,0.0,0.0,0.0,0.0,-0.0715814456344
1970/01/01/02:04:03.462000,358,0,0,world,8,1479,0.0,0.0,0.0,0.747198941372,0.437711142959,-0.00821945834884,0.0,0.0,0.0,0.0,-0.104670524597
1970/01/01/02:04:03.497000,359,0,0,world,8,1479,0.0,0.0,0.0,0.849584840297,0.346213831279,-0.00910603176346,0.0,0.0,0.0,0.0,-0.145850196481
1970/01/01/02:04:03.519000,360,0,0,world,8,1479,0.0,0.0,0.0,0.859407987071,0.452609795147,-0.00983000277194,0.0,0.0,0.0,0.0,-0.102668233216
1970/01/01/02:04:03.556000,361,0,0,world,8,1479,0.0,0.0,0.0,0.881744265789,0.440682699384,-0.0101950208572,0.0,0.0,0.0,0.0,-0.113073550165
1970/01/01/02:04:03.590000,362,0,0,world,8,1479,0.0,0.0,0.0,0.920482231943,0.454409058485,-0.0102026895924,0.0,0.0,0.0,0.0,-0.100973628461
1970/01/01/02:04:03.627000,363,0,0,world,8,1479,0.0,0.0,0.0,1.01155575154,0.452479057716,-0.0124056268161,0.0,0.0,0.0,0.0,-0.114935904741
1970/01/01/02:04:03.655000,364,0,0,world,8,1479,0.0,0.0,0.0,1.00207282789,0.328526810281,-0.0139124879502,0.0,0.0,0.0,0.0,-0.141603976488
1970/01/01/02:04:03.686000,365,0,0,world,8,1479,0.0,0.0,0.0,1.03637268683,0.361120898233,-0.0167127589869,0.0,0.0,0.0,0.0,-0.129108294845
1970/01/01/02:04:03.736000,366,0,0,world,8,1479,0.0,0.0,0.0,0.786115169164,0.458848514111,0.0119132144873,0.0,0.0,0.0,0.0,-0.142203882337
1970/01/01/02:04:03.763000,367,0,0,world,8,1479,0.0,0.0,0.0,1.16489858461,0.422342552038,-0.0226882841249,0.0,0.0,0.0,0.0,-0.124883562326
1970/01/01/02:04:03.792000,368,0,0,world,8,1479,0.0,0.0,0.0,1.15738321125,0.395329398137,-0.0241588282582,0.0,0.0,0.0,0.0,-0.120565831661
1970/01/01/02:04:03.823000,369,0,0,world,8,1479,0.0,0.0,0.0,1.17735631233,0.391277180603,-0.0254877762357,0.0,0.0,0.0,0.0,-0.11790458113
1970/01/01/02:04:03.856000,370,0,0,world,8,1479,0.0,0.0,0.0,1.36500379545,0.356813108199,-0.0255504850061,0.0,0.0,0.0,0.0,-0.131177932024
1970/01/01/02:04:03.894000,371,0,0,world,8,1479,0.0,0.0,0.0,1.15013085463,0.498606001214,-0.0264907958773,0.0,0.0,0.0,0.0,-0.0853096991777
1970/01/01/02:04:03.927000,372,0,0,world,8,1479,0.0,0.0,0.0,1.1816769802,0.490737041702,-0.0289946949067,0.0,0.0,0.0,0.0,-0.0920888707042
1970/01/01/02:04:03.955000,373,0,0,world,8,1479,0.0,0.0,0.0,1.22654070858,0.518906556556,-0.0324038806758,0.0,0.0,0.0,0.0,-0.0886377245188
1970/01/01/02:04:03.991000,374,0,0,world,8,1479,0.0,0.0,0.0,1.24516055535,0.431227246978,-0.0342680150244,0.0,0.0,0.0,0.0,-0.114110432565
1970/01/01/02:04:04.022000,375,0,0,world,8,1479,0.0,0.0,0.0,1.16434146797,0.595452544876,-0.036503442295,0.0,0.0,0.0,0.0,-0.0664078369737
1970/01/01/02:04:04.059000,376,0,0,world,8,1479,0.0,0.0,0.0,1.02762231136,0.623639739411,-0.0376508429075,0.0,0.0,0.0,0.0,-0.0497584454715
1970/01/01/02:04:04.103000,377,0,0,world,8,1479,0.0,0.0,0.0,0.931988421311,0.537644015223,-0.0397285641957,0.0,0.0,0.0,0.0,-0.0826810672879
1970/01/01/02:04:04.124000,378,0,0,world,8,1479,0.0,0.0,0.0,0.947718337763,0.580363799945,-0.0412193668746,0.0,0.0,0.0,0.0,-0.090142019093
1970/01/01/02:04:04.164000,379,0,0,world,8,1479,0.0,0.0,0.0,0.82878712336,0.707210036014,-0.0400445484593,0.0,0.0,0.0,0.0,-0.0577637031674
1970/01/01/02:04:04.189000,380,0,0,world,8,1479,0.0,0.0,0.0,0.783363795389,0.669748638627,-0.037403512662,0.0,0.0,0.0,0.0,-0.0787996202707
1970/01/01/02:04:04.227000,381,0,0,world,8,1479,0.0,0.0,0.0,0.818543939873,0.596571498022,-0.032333137636,0.0,0.0,0.0,0.0,-0.116062253714
1970/01/01/02:04:04.259000,382,0,0,world,8,1479,0.0,0.0,0.0,0.857228687855,0.635924199466,-0.025362792279,0.0,0.0,0.0,0.0,-0.121178232133
1970/01/01/02:04:04.290000,383,0,0,world,8,1479,0.0,0.0,0.0,0.986932876773,0.416666744559,-0.0155098517215,0.0,0.0,0.0,0.0,-0.208842977881
1970/01/01/02:04:04.321000,384,0,0,world,8,1479,0.0,0.0,0.0,1.02691766522,0.396223376646,-0.0054736046139,0.0,0.0,0.0,0.0,-0.198784172535
1970/01/01/02:04:04.360000,385,0,0,world,8,1479,0.0,0.0,0.0,1.14085945813,0.329081424411,0.00327235120535,0.0,0.0,0.0,0.0,-0.232863724232
1970/01/01/02:04:04.404000,386,0,0,world,8,1479,0.0,0.0,0.0,1.0910928086,0.311908238547,0.0138246099604,0.0,0.0,0.0,0.0,-0.226758047938
1970/01/01/02:04:04.435000,387,0,0,world,8,1479,0.0,0.0,0.0,1.00471514184,0.387403492435,0.0138474390509,0.0,0.0,0.0,0.0,-0.186180204153
1970/01/01/02:04:04.462000,388,0,0,world,8,1479,0.0,0.0,0.0,1.07029111036,0.376277160771,0.0146422833893,0.0,0.0,0.0,0.0,-0.206376761198
1970/01/01/02:04:04.498000,389,0,0,world,8,1479,0.0,0.0,0.0,1.12796124251,0.337213627542,0.0129741462439,0.0,0.0,0.0,0.0,-0.21999040246
1970/01/01/02:04:04.529000,390,0,0,world,8,1479,0.0,0.0,0.0,1.31503645479,0.426865943828,0.00965397881805,0.0,0.0,0.0,0.0,-0.20800241828
1970/01/01/02:04:04.558000,391,0,0,world,8,1479,0.0,0.0,0.0,1.39570376956,0.430180388521,0.00617916907076,0.0,0.0,0.0,0.0,-0.213835626841
1970/01/01/02:04:04.591000,392,0,0,world,8,1479,0.0,0.0,0.0,1.44425797431,0.392177530488,0.00198659098826,0.0,0.0,0.0,0.0,-0.211980491877
1970/01/01/02:04:04.621000,393,0,0,world,8,1479,0.0,0.0,0.0,1.62531963011,0.424262360504,-0.00326752386117,0.0,0.0,0.0,0.0,-0.236876070499
1970/01/01/02:04:04.656000,394,0,0,world,8,1479,0.0,0.0,0.0,1.7817350845,0.388933998056,-0.00988829417189,0.0,0.0,0.0,0.0,-0.273710250854
1970/01/01/02:04:04.694000,395,0,0,world,8,1479,0.0,0.0,0.0,1.9645086192,0.398168903759,-0.0249037665383,0.0,0.0,0.0,0.0,-0.289388746023
1970/01/01/02:04:04.746000,396,0,0,world,8,1479,0.0,0.0,0.0,2.07575236192,0.44993434524,-0.0336088342883,0.0,0.0,0.0,0.0,-0.273008197546
1970/01/01/02:04:04.773000,397,0,0,world,8,1479,0.0,0.0,0.0,2.07224777448,0.42070446538,-0.0419954299113,0.0,0.0,0.0,0.0,-0.233750507236
1970/01/01/02:04:04.794000,398,0,0,world,8,1479,0.0,0.0,0.0,2.18953444338,0.461878003986,-0.0504284462494,0.0,0.0,0.0,0.0,-0.218436673284
1970/01/01/02:04:04.820000,399,0,0,world,8,1479,0.0,0.0,0.0,2.06416115347,0.464758858026,-0.0497821119727,0.0,0.0,0.0,0.0,-0.209270149469
1970/01/01/02:04:04.852000,400,0,0,world,8,1479,0.0,0.0,0.0,2.16033914087,0.437577183288,-0.0584134643074,0.0,0.0,0.0,0.0,-0.18916593492
1970/01/01/02:04:04.891000,401,0,0,world,8,1479,0.0,0.0,0.0,2.20604366551,0.537663422827,-0.0650116243451,0.0,0.0,0.0,0.0,-0.129920706153
1970/01/01/02:04:04.916000,402,0,0,world,8,1479,0.0,0.0,0.0,2.25448237446,0.447792802221,-0.0730567874758,0.0,0.0,0.0,0.0,-0.114912055433
1970/01/01/02:04:04.966000,403,0,0,world,8,1479,0.0,0.0,0.0,2.57531859257,0.0396719401896,-0.0865420463723,0.0,0.0,0.0,0.0,-0.127370908856
1970/01/01/02:04:04.995000,404,0,0,world,8,1479,0.0,0.0,0.0,2.57776866533,-0.315295575033,-0.0901873680435,0.0,0.0,0.0,0.0,-0.153990805149
1970/01/01/02:04:05.025000,405,0,0,world,8,1479,0.0,0.0,0.0,2.3976943894,-0.0313395582557,-0.0904239899056,0.0,0.0,0.0,0.0,-0.108729794621
1970/01/01/02:04:05.053000,406,0,0,world,8,1479,0.0,0.0,0.0,2.44254467375,-0.026433783356,-0.0948732048881,0.0,0.0,0.0,0.0,-0.0928461402655
1970/01/01/02:04:05.098000,407,0,0,world,8,1479,0.0,0.0,0.0,2.40965914694,-0.161322491945,-0.0970493493452,0.0,0.0,0.0,0.0,-0.10375649482
1970/01/01/02:04:05.122000,408,0,0,world,8,1479,0.0,0.0,0.0,2.16003290591,0.216546016714,-0.0972561452078,0.0,0.0,0.0,0.0,-0.0436854623258
1970/01/01/02:04:05.157000,409,0,0,world,8,1479,0.0,0.0,0.0,2.29629919163,0.111135037609,-0.0959592718864,0.0,0.0,0.0,0.0,-0.0928940623999
1970/01/01/02:04:05.192000,410,0,0,world,8,1479,0.0,0.0,0.0,2.04287630057,0.546983692365,-0.091138558759,0.0,0.0,0.0,0.0,-0.0808972120285
1970/01/01/02:04:05.221000,411,0,0,world,8,1479,0.0,0.0,0.0,1.57056293942,0.913732735333,-0.100479664298,0.0,0.0,0.0,0.0,-0.0143740074709
1970/01/01/02:04:05.259000,412,0,0,world,8,1479,0.0,0.0,0.0,1.08699762035,1.11911179782,-0.0992268413201,0.0,0.0,0.0,0.0,0.010840232484
1970/01/01/02:04:05.292000,413,0,0,world,8,1479,0.0,0.0,0.0,0.114287692135,1.1953857702,-0.0862139237511,0.0,0.0,0.0,0.0,0.149134501815
1970/01/01/02:04:05.315000,414,0,0,world,8,1479,0.0,0.0,0.0,0.0430928642167,1.14446010201,-0.0904766733383,0.0,0.0,0.0,0.0,0.146161139011
1970/01/01/02:04:05.355000,415,0,0,world,8,1479,0.0,0.0,0.0,-0.347451579554,1.11414107353,-0.0747341659418,0.0,0.0,0.0,0.0,0.198646575212
1970/01/01/02:04:05.392000,416,0,0,world,8,1479,0.0,0.0,0.0,-0.0632840771051,1.24634403927,-0.0674681823496,0.0,0.0,0.0,0.0,0.181115880609
1970/01/01/02:04:05.422000,417,0,0,world,8,1479,0.0,0.0,0.0,0.235650669066,1.23439283691,-0.0678138883821,0.0,0.0,0.0,0.0,0.165266394615
1970/01/01/02:04:05.468000,418,0,0,world,8,1479,0.0,0.0,0.0,0.733382756794,1.21430693431,-0.0412816269072,0.0,0.0,0.0,0.0,0.0685864537954
1970/01/01/02:04:05.489000,419,0,0,world,8,1479,0.0,0.0,0.0,1.1632232791,1.02480138948,-0.0257044982071,0.0,0.0,0.0,0.0,-0.0285628475249
1970/01/01/02:04:05.530000,420,0,0,world,8,1479,0.0,0.0,0.0,1.30017539084,0.900415797365,-0.0096556865247,0.0,0.0,0.0,0.0,-0.0660159513354
1970/01/01/02:04:05.557000,421,0,0,world,8,1479,0.0,0.0,0.0,1.45873470456,0.621655512754,0.00729791410311,0.0,0.0,0.0,0.0,-0.178006738424
1970/01/01/02:04:05.595000,422,0,0,world,8,1479,0.0,0.0,0.0,1.35841216871,0.202317924691,0.0231024035459,0.0,0.0,0.0,0.0,-0.280507773161
1970/01/01/02:04:05.624000,423,0,0,world,8,1479,0.0,0.0,0.0,1.19606870288,-0.202665104676,0.0340509179208,0.0,0.0,0.0,0.0,-0.363916963339
1970/01/01/02:04:05.665000,424,0,0,world,8,1479,0.0,0.0,0.0,1.0531257767,-0.439252091969,0.0428040696356,0.0,0.0,0.0,0.0,-0.389664888382
1970/01/01/02:04:05.695000,425,0,0,world,8,1479,0.0,0.0,0.0,0.891420022645,-0.698604750528,0.0455987745522,0.0,0.0,0.0,0.0,-0.413077622652
1970/01/01/02:04:05.733000,426,0,0,world,8,1479,0.0,0.0,0.0,0.751943385916,-0.794924620991,0.0509992767391,0.0,0.0,0.0,0.0,-0.390158623457
1970/01/01/02:04:05.762000,427,0,0,world,8,1479,0.0,0.0,0.0,0.699979801823,-0.839037834242,0.0614385105598,0.0,0.0,0.0,0.0,-0.382569074631
1970/01/01/02:04:05.792000,428,0,0,world,8,1479,0.0,0.0,0.0,0.694088576608,-0.70441286749,0.078017012684,0.0,0.0,0.0,0.0,-0.311384290457
