time,.header.seq,.header.stamp.secs,.header.stamp.nsecs,.header.frame_id,.coordinate_frame,.type_mask,.position.x,.position.y,.position.z,.velocity.x,.velocity.y,.velocity.z,.acceleration_or_force.x,.acceleration_or_force.y,.acceleration_or_force.z,.yaw,.yaw_rate
1970/01/01/02:01:30.514000,63,0,0,world,8,1479,0.0,0.0,0.0,0.444173637691,-0.491059203541,0.00825975930148,0.0,0.0,0.0,0.0,-0.00247283536009
1970/01/01/02:01:30.558000,64,0,0,world,8,1479,0.0,0.0,0.0,0.465609725316,-0.56008403539,0.00993533188956,0.0,0.0,0.0,0.0,-0.0207520332187
1970/01/01/02:01:30.580000,65,0,0,world,8,1479,0.0,0.0,0.0,0.501388942067,-0.647732698985,0.012308837068,0.0,0.0,0.0,0.0,-0.0472647622228
1970/01/01/02:01:30.615000,66,0,0,world,8,1479,0.0,0.0,0.0,0.540837707503,-0.732109033668,0.0150675323978,0.0,0.0,0.0,0.0,-0.0733789876103
1970/01/01/02:01:30.651000,67,0,0,world,8,1479,0.0,0.0,0.0,0.278757558838,-0.588984642562,0.0179634960148,0.0,0.0,0.0,0.0,-0.0133639555424
1970/01/01/02:01:30.684000,68,0,0,world,8,1479,0.0,0.0,0.0,0.193442831799,-0.635176780111,0.0198359702295,0.0,0.0,0.0,0.0,-0.00197893264703
1970/01/01/02:01:30.719000,69,0,0,world,8,1479,0.0,0.0,0.0,0.136660334065,-0.713505507679,0.0231892921966,0.0,0.0,0.0,0.0,-0.0176678877324
1970/01/01/02:01:30.762000,70,0,0,world,8,1479,0.0,0.0,0.0,0.242298278455,-0.813779019811,0.0245401835894,0.0,0.0,0.0,0.0,-0.0331516191363
1970/01/01/02:01:30.802000,71,0,0,world,8,1479,0.0,0.0,0.0,0.131390862283,-0.608364530775,0.0296520600983,0.0,0.0,0.0,0.0,0.0478151403368
1970/01/01/02:01:30.820000,72,0,0,world,8,1479,0.0,0.0,0.0,0.0647503737974,-0.515608343209,0.0283706507173,0.0,0.0,0.0,0.0,0.0834373235703
1970/01/01/02:01:30.850000,73,0,0,world,8,1479,0.0,0.0,0.0,-0.0680285272422,-0.267655310915,0.0223105295848,0.0,0.0,0.0,0.0,0.17937284708
1970/01/01/02:01:30.887000,74,0,0,world,8,1479,0.0,0.0,0.0,-0.116238421302,-0.147288694928,0.0183717515701,0.0,0.0,0.0,0.0,0.227726772428
1970/01/01/02:01:30.922000,75,0,0,world,8,1479,0.0,0.0,0.0,-0.0877109971288,-0.137092145969,0.0127800424358,0.0,0.0,0.0,0.0,0.237563297153
1970/01/01/02:01:30.959000,76,0,0,world,8,1479,0.0,0.0,0.0,-0.105790833666,-0.0794750843909,0.0067579040742,0.0,0.0,0.0,0.0,0.227220773697
1970/01/01/02:01:30.982000,77,0,0,world,8,1479,0.0,0.0,0.0,-0.0635095904515,-0.0145392564091,-0.00062612131131,0.0,0.0,0.0,0.0,0.223310634494
1970/01/01/02:01:31.018000,78,0,0,world,8,1479,0.0,0.0,0.0,-0.0270805011001,0.0146662886255,-0.00580743814214,0.0,0.0,0.0,0.0,0.195354297757
1970/01/01/02:01:31.055000,79,0,0,world,8,1479,0.0,0.0,0.0,0.0262246784732,-0.0366338419149,-0.0100676601662,0.0,0.0,0.0,0.0,0.136659055948
1970/01/01/02:01:31.086000,80,0,0,world,8,1479,0.0,0.0,0.0,0.025181836657,0.00600581963865,-0.00732650633162,0.0,0.0,0.0,0.0,0.0937112271786
1970/01/01/02:01:31.122000,81,0,0,world,8,1479,0.0,0.0,0.0,0.0172763138647,0.131392869198,-0.002676693339,0.0,0.0,0.0,0.0,0.0795415863395
1970/01/01/02:01:31.150000,82,0,0,world,8,1479,0.0,0.0,0.0,0.0037798627718,0.278544554907,0.00406355118416,0.0,0.0,0.0,0.0,0.0658474266529
1970/01/01/02:01:31.179000,83,0,0,world,8,1479,0.0,0.0,0.0,-0.00262055954438,0.421266990806,0.00967212607362,0.0,0.0,0.0,0.0,0.0584477819502
1970/01/01/02:01:31.216000,84,0,0,world,8,1479,0.0,0.0,0.0,0.0074803244491,0.569262567774,0.0118124079934,0.0,0.0,0.0,0.0,0.0602153688669
1970/01/01/02:01:31.251000,85,0,0,world,8,1479,0.0,0.0,0.0,0.0243694754599,0.590236625615,0.0137220475713,0.0,0.0,0.0,0.0,0.0112821618095
1970/01/01/02:01:31.279000,86,0,0,world,8,1479,0.0,0.0,0.0,0.0341220666697,0.665679676454,0.014256950452,0.0,0.0,0.0,0.0,-0.00068661919795
1970/01/01/02:01:31.318000,87,0,0,world,8,1479,0.0,0.0,0.0,0.0621657923784,0.718341400358,0.0153878989492,0.0,0.0,0.0,0.0,-0.0301380977035
1970/01/01/02:01:31.351000,88,0,0,world,8,1479,0.0,0.0,0.0,0.0600287121997,0.606197200526,0.00976588123789,0.0,0.0,0.0,0.0,-0.103264912963
1970/01/01/02:01:31.386000,89,0,0,world,8,1479,0.0,0.0,0.0,0.0674440147891,0.67044223328,0.0102724854148,0.0,0.0,0.0,0.0,-0.105884328485
1970/01/01/02:01:31.413000,90,0,0,world,8,1479,0.0,0.0,0.0,0.0736131243891,0.596992224691,0.00610222778248,0.0,0.0,0.0,0.0,-0.155966192484
1970/01/01/02:01:31.449000,91,0,0,world,8,1479,0.0,0.0,0.0,0.0538250143298,0.585629977518,0.00889817110671,0.0,0.0,0.0,0.0,-0.18614064157
1970/01/01/02:01:31.478000,92,0,0,world,8,1479,0.0,0.0,0.0,0.00331766505438,0.382909133401,0.00518639410657,0.0,0.0,0.0,0.0,-0.279439389706
1970/01/01/02:01:31.513000,93,0,0,world,8,1479,0.0,0.0,0.0,0.0044645843981,0.484130790032,0.00978668631192,0.0,0.0,0.0,0.0,-0.264428466558
1970/01/01/02:01:31.559000,94,0,0,world,8,1479,0.0,0.0,0.0,-0.00581265798719,0.518242422579,0.00730326859414,0.0,0.0,0.0,0.0,-0.259643316269
1970/01/01/02:01:31.582000,95,0,0,world,8,1479,0.0,0.0,0.0,-0.0184563645781,0.558882424591,0.00793034115819,0.0,0.0,0.0,0.0,-0.256492257118
1970/01/01/02:01:31.615000,96,0,0,world,8,1479,0.0,0.0,0.0,-0.00486003119707,0.677598395586,0.0149791471896,0.0,0.0,0.0,0.0,-0.194142758846
1970/01/01/02:01:31.649000,97,0,0,world,8,1479,0.0,0.0,0.0,-0.0493313445055,0.527553147639,0.0119818027443,0.0,0.0,0.0,0.0,-0.216446951032
1970/01/01/02:01:31.681000,98,0,0,world,8,1479,0.0,0.0,0.0,6.15343116769,7.17413390242,0.0145558808671,0.0,0.0,0.0,0.0,2.91717004776
1970/01/01/02:01:31.716000,99,0,0,world,8,1479,0.0,0.0,0.0,6.1805686367,7.73676298896,0.0141235950864,0.0,0.0,0.0,0.0,3.11498522758
1970/01/01/02:01:31.749000,100,0,0,world,8,1479,0.0,0.0,0.0,6.2703484975,8.53824805231,0.014061098368,0.0,0.0,0.0,0.0,3.40750217438
1970/01/01/02:01:31.783000,101,0,0,world,8,1479,0.0,0.0,0.0,6.23024241039,8.70452699385,0.0140499576313,0.0,0.0,0.0,0.0,3.45411419868
1970/01/01/02:01:31.817000,102,0,0,world,8,1479,0.0,0.0,0.0,6.20282807058,8.91859401668,0.0134501410056,0.0,0.0,0.0,0.0,3.52592158318
1970/01/01/02:01:31.848000,103,0,0,world,8,1479,0.0,0.0,0.0,6.12511104478,8.74310864424,0.0121360286115,0.0,0.0,0.0,0.0,3.45842790604
1970/01/01/02:01:31.885000,104,0,0,world,8,1479,0.0,0.0,0.0,5.87638099093,7.46470340313,0.00739545529348,0.0,0.0,0.0,0.0,2.98955702782
1970/01/01/02:01:31.921000,105,0,0,world,8,1479,0.0,0.0,0.0,5.67958235269,6.52284689447,0.00378309603506,0.0,0.0,0.0,0.0,2.64136552811
1970/01/01/02:01:31.950000,106,0,0,world,8,1479,0.0,0.0,0.0,5.49111597082,5.71197549301,-0.000811389939383,0.0,0.0,0.0,0.0,2.34272074699
1970/01/01/02:01:31.982000,107,0,0,world,8,1479,0.0,0.0,0.0,-0.0366383142922,0.45810074023,-0.00392120418998,0.0,0.0,0.0,0.0,-0.209151044488
1970/01/01/02:01:32.022000,108,0,0,world,8,1479,0.0,0.0,0.0,-0.0422971283027,0.589873269904,-0.0237871654691,0.0,0.0,0.0,0.0,-0.222988992929
1970/01/01/02:01:32.049000,109,0,0,world,8,1479,0.0,0.0,0.0,-0.055944261916,0.351400060713,-0.0342827601962,0.0,0.0,0.0,0.0,-0.305442452431
1970/01/01/02:01:32.079000,110,0,0,world,8,1479,0.0,0.0,0.0,-0.00810785778538,0.430318386682,-0.0530236999867,0.0,0.0,0.0,0.0,-0.298545300961
1970/01/01/02:01:32.115000,111,0,0,world,8,1479,0.0,0.0,0.0,0.0750201144886,0.557538370831,-0.0654906400799,0.0,0.0,0.0,0.0,-0.252183586359
1970/01/01/02:01:32.155000,112,0,0,world,8,1479,0.0,0.0,0.0,0.00869233474387,0.162889285728,-0.0696047785491,0.0,0.0,0.0,0.0,-0.336111038923
1970/01/01/02:01:32.185000,113,0,0,world,8,1479,0.0,0.0,0.0,0.101662382182,0.192837256197,-0.0669368041036,0.0,0.0,0.0,0.0,-0.302443742752
1970/01/01/02:01:32.219000,114,0,0,world,8,1479,0.0,0.0,0.0,0.14146232473,0.178378476496,-0.056333535736,0.0,0.0,0.0,0.0,-0.257274925709
1970/01/01/02:01:32.249000,115,0,0,world,8,1479,0.0,0.0,0.0,0.174877570523,0.183053550278,-0.0376532154362,0.0,0.0,0.0,0.0,-0.196072250605
1970/01/01/02:01:32.283000,116,0,0,world,8,1479,0.0,0.0,0.0,0.180017854296,0.078634235258,-0.0266073080807,0.0,0.0,0.0,0.0,-0.179171681404
1970/01/01/02:01:32.315000,117,0,0,world,8,1479,0.0,0.0,0.0,0.195296505871,0.0460405762383,-0.028710538195,0.0,0.0,0.0,0.0,-0.186802640557
1970/01/01/02:01:32.348000,118,0,0,world,8,1479,0.0,0.0,0.0,0.206316006065,-0.000872155211123,-0.00452492646331,0.0,0.0,0.0,0.0,-0.0943857058883
1970/01/01/02:01:32.381000,119,0,0,world,8,1479,0.0,0.0,0.0,0.193894992176,-0.0194904233983,-0.000511823211762,0.0,0.0,0.0,0.0,-0.0403543375432
1970/01/01/02:01:32.415000,120,0,0,world,8,1479,0.0,0.0,0.0,0.175032318382,-0.0776974245811,-0.00144152763183,0.0,0.0,0.0,0.0,-0.0027480693534
1970/01/01/02:01:32.454000,121,0,0,world,8,1479,0.0,0.0,0.0,0.139369090281,-0.0811325185063,-0.00620416230815,0.0,0.0,0.0,0.0,0.0521167032421
1970/01/01/02:01:32.482000,122,0,0,world,8,1479,0.0,0.0,0.0,0.0953419926716,-0.182268949011,-0.0133488018195,0.0,0.0,0.0,0.0,0.0696406662464
1970/01/01/02:01:32.518000,123,0,0,world,8,1479,0.0,0.0,0.0,0.0691522633025,-0.25295567641,-0.0207067196769,0.0,0.0,0.0,0.0,0.092788271606
1970/01/01/02:01:32.561000,124,0,0,world,8,1479,0.0,0.0,0.0,0.00452385308205,-0.221465721733,-0.0255656383595,0.0,0.0,0.0,0.0,0.140444248915
1970/01/01/02:01:32.585000,125,0,0,world,8,1479,0.0,0.0,0.0,-0.0163411055435,-0.141760785003,-0.0322719760315,0.0,0.0,0.0,0.0,0.195104807615
1970/01/01/02:01:32.614000,126,0,0,world,8,1479,0.0,0.0,0.0,-0.0217583802153,-0.377979583639,-0.0329859151685,0.0,0.0,0.0,0.0,0.154020503163
1970/01/01/02:01:32.649000,127,0,0,world,8,1479,0.0,0.0,0.0,-0.0744644757409,-0.189875394803,-0.037621549162,0.0,0.0,0.0,0.0,0.235067054629
1970/01/01/02:01:32.681000,128,0,0,world,8,1479,0.0,0.0,0.0,-0.0706941581116,-0.135634353498,-0.0391014187832,0.0,0.0,0.0,0.0,0.280482381582
1970/01/01/02:01:32.714000,129,0,0,world,8,1479,0.0,0.0,0.0,-0.0654362276584,-0.198093573677,-0.0390873719181,0.0,0.0,0.0,0.0,0.279181063175
1970/01/01/02:01:32.750000,130,0,0,world,8,1479,0.0,0.0,0.0,-0.0265464768704,-0.286804539615,-0.0412846589668,0.0,0.0,0.0,0.0,0.259846717119
1970/01/01/02:01:32.784000,131,0,0,world,8,1479,0.0,0.0,0.0,0.0258013146053,-0.27385888329,-0.0450974964186,0.0,0.0,0.0,0.0,0.269064664841
1970/01/01/02:01:32.819000,132,0,0,world,8,1479,0.0,0.0,0.0,0.0280619271342,-0.241844036731,-0.0431708415564,0.0,0.0,0.0,0.0,0.275499612093
1970/01/01/02:01:32.854000,133,0,0,world,8,1479,0.0,0.0,0.0,0.0492623009534,-0.250430266138,-0.0424486077147,0.0,0.0,0.0,0.0,0.267268061638
1970/01/01/02:01:32.882000,134,0,0,world,8,1479,0.0,0.0,0.0,0.0508932367553,-0.241275226137,-0.0403260548465,0.0,0.0,0.0,0.0,0.259954154491
1970/01/01/02:01:32.916000,135,0,0,world,8,1479,0.0,0.0,0.0,0.0701641277413,-0.378019296115,-0.0399915941024,0.0,0.0,0.0,0.0,0.198166936636
1970/01/01/02:01:32.951000,136,0,0,world,8,1479,0.0,0.0,0.0,0.0456937527269,-0.358947911507,-0.0346192776002,0.0,0.0,0.0,0.0,0.191775500774
1970/01/01/02:01:32.985000,137,0,0,world,8,1479,0.0,0.0,0.0,0.115630486488,-0.322721802051,-0.0340354772961,0.0,0.0,0.0,0.0,0.197123125196
1970/01/01/02:01:33.017000,138,0,0,world,8,1479,0.0,0.0,0.0,0.166959808572,-0.518559752063,-0.0292563984796,0.0,0.0,0.0,0.0,0.134383007884
1970/01/01/02:01:33.050000,139,0,0,world,8,1479,0.0,0.0,0.0,0.179554956119,-0.502072817534,-0.0286280915885,0.0,0.0,0.0,0.0,0.141273587942
1970/01/01/02:01:33.082000,140,0,0,world,8,1479,0.0,0.0,0.0,0.190768078923,-0.499893640334,-0.0277718609664,0.0,0.0,0.0,0.0,0.141788184643
1970/01/01/02:01:33.110000,141,0,0,world,8,1479,0.0,0.0,0.0,0.184437257956,-0.617733546283,-0.0242911166136,0.0,0.0,0.0,0.0,0.104365468025
1970/01/01/02:01:33.146000,142,0,0,world,8,1479,0.0,0.0,0.0,0.204123199896,-0.536387490845,-0.025121580235,0.0,0.0,0.0,0.0,0.134958326817
1970/01/01/02:01:33.189000,143,0,0,world,8,1479,0.0,0.0,0.0,0.23140494499,-0.676357287089,-0.0236733415278,0.0,0.0,0.0,0.0,0.0877287685871
1970/01/01/02:01:33.216000,144,0,0,world,8,1479,0.0,0.0,0.0,0.206025683971,-0.630642349371,-0.0217837718209,0.0,0.0,0.0,0.0,0.102583371103
1970/01/01/02:01:33.247000,145,0,0,world,8,1479,0.0,0.0,0.0,0.262187442021,-0.832234445066,-0.0198057768558,0.0,0.0,0.0,0.0,0.0484785251319
1970/01/01/02:01:33.288000,146,0,0,world,8,1479,0.0,0.0,0.0,0.275427241017,-0.771444531241,-0.0210425482135,0.0,0.0,0.0,0.0,0.0831102132797
1970/01/01/02:01:33.320000,147,0,0,world,8,1479,0.0,0.0,0.0,0.282371410162,-0.648912442799,-0.0223517698073,0.0,0.0,0.0,0.0,0.132791101933
1970/01/01/02:01:33.345000,148,0,0,world,8,1479,0.0,0.0,0.0,0.308707360365,-0.772570822139,-0.0233437282994,0.0,0.0,0.0,0.0,0.103706255555
1970/01/01/02:01:33.381000,149,0,0,world,8,1479,0.0,0.0,0.0,0.307601849536,-0.778507747218,-0.0204422068472,0.0,0.0,0.0,0.0,0.111253656447
1970/01/01/02:01:33.417000,150,0,0,world,8,1479,0.0,0.0,0.0,0.291342473457,-0.76972498575,-0.0196873032522,0.0,0.0,0.0,0.0,0.113555155694
1970/01/01/02:01:33.458000,151,0,0,world,8,1479,0.0,0.0,0.0,0.323584808511,-0.788279014673,-0.0212929402315,0.0,0.0,0.0,0.0,0.113973975182
1970/01/01/02:01:33.486000,152,0,0,world,8,1479,0.0,0.0,0.0,0.371273476221,-0.930373119424,-0.0181881463683,0.0,0.0,0.0,0.0,0.0769690573215
1970/01/01/02:01:33.514000,153,0,0,world,8,1479,0.0,0.0,0.0,0.407357096705,-0.794003060183,-0.0182931143289,0.0,0.0,0.0,0.0,0.140255838633
1970/01/01/02:01:33.559000,154,0,0,world,8,1479,0.0,0.0,0.0,0.463439115482,-0.926573862758,-0.0204337990077,0.0,0.0,0.0,0.0,0.0863936170936
1970/01/01/02:01:33.580000,155,0,0,world,8,1479,0.0,0.0,0.0,0.522327286631,-0.958344872526,-0.0213372132167,0.0,0.0,0.0,0.0,0.0830015093088
1970/01/01/02:01:33.612000,156,0,0,world,8,1479,0.0,0.0,0.0,0.561388756787,-1.07241435752,-0.0203994314569,0.0,0.0,0.0,0.0,0.040527690202
1970/01/01/02:01:33.649000,157,0,0,world,8,1479,0.0,0.0,0.0,0.598994014606,-1.00046215251,-0.0194540977423,0.0,0.0,0.0,0.0,0.0537502802908
1970/01/01/02:01:33.678000,158,0,0,world,8,1479,0.0,0.0,0.0,0.630161285661,-1.12004591052,-0.0203697268845,0.0,0.0,0.0,0.0,0.0055391904898
1970/01/01/02:01:33.717000,159,0,0,world,8,1479,0.0,0.0,0.0,0.578197134297,-1.01186962292,-0.0189057590941,0.0,0.0,0.0,0.0,0.0345182269812
1970/01/01/02:01:33.749000,160,0,0,world,8,1479,0.0,0.0,0.0,0.582358282258,-1.00564316501,-0.0167444176371,0.0,0.0,0.0,0.0,0.0270151309669
1970/01/01/02:01:33.786000,161,0,0,world,8,1479,0.0,0.0,0.0,0.554851517031,-1.06412233107,-0.0187552435769,0.0,0.0,0.0,0.0,-0.0186784230173
1970/01/01/02:01:33.818000,162,0,0,world,8,1479,0.0,0.0,0.0,0.540043664583,-0.963845496271,-0.0159929925319,0.0,0.0,0.0,0.0,0.0130251040682
1970/01/01/02:01:33.850000,163,0,0,world,8,1479,0.0,0.0,0.0,0.651368399489,-1.16962894579,-0.0179091480235,0.0,0.0,0.0,0.0,-0.0389142148197
1970/01/01/02:01:33.882000,164,0,0,world,8,1479,0.0,0.0,0.0,0.832357905499,-1.31143488311,-0.0189421510685,0.0,0.0,0.0,0.0,-0.0566294752061
1970/01/01/02:01:33.915000,165,0,0,world,8,1479,0.0,0.0,0.0,0.957235263147,-1.30619948314,-0.0180916727026,0.0,0.0,0.0,0.0,-0.0256681852043
1970/01/01/02:01:33.951000,166,0,0,world,8,1479,0.0,0.0,0.0,1.04627025692,-1.40124962697,-0.019412048931,0.0,0.0,0.0,0.0,-0.0498688295484
1970/01/01/02:01:33.979000,167,0,0,world,8,1479,0.0,0.0,0.0,1.08423485636,-1.46927286347,-0.0211334583887,0.0,0.0,0.0,0.0,-0.0825584977865
1970/01/01/02:01:34.013000,168,0,0,world,8,1479,0.0,0.0,0.0,1.03001809574,-1.34568227179,-0.0194042833294,0.0,0.0,0.0,0.0,-0.0462532266974
1970/01/01/02:01:34.049000,169,0,0,world,8,1479,0.0,0.0,0.0,0.989122908225,-1.32102011014,-0.0189047913222,0.0,0.0,0.0,0.0,-0.0459522530437
1970/01/01/02:01:34.080000,170,0,0,world,8,1479,0.0,0.0,0.0,0.898316966484,-1.32949923663,-0.0191789470692,0.0,0.0,0.0,0.0,-0.0880163386464
1970/01/01/02:01:34.114000,171,0,0,world,8,1479,0.0,0.0,0.0,0.768149968356,-1.16750616301,-0.0199470841851,0.0,0.0,0.0,0.0,-0.0576851032674
1970/01/01/02:01:34.152000,172,0,0,world,8,1479,0.0,0.0,0.0,0.69383325969,-1.04906462195,-0.0233169513993,0.0,0.0,0.0,0.0,-0.0327069759369
1970/01/01/02:01:34.182000,173,0,0,world,8,1479,0.0,0.0,0.0,0.708223691226,-1.17270132841,-0.0208604095955,0.0,0.0,0.0,0.0,-0.074031457305
1970/01/01/02:01:34.214000,174,0,0,world,8,1479,0.0,0.0,0.0,0.806316695536,-1.2790142363,-0.0188572435545,0.0,0.0,0.0,0.0,-0.0846692174673
1970/01/01/02:01:34.252000,175,0,0,world,8,1479,0.0,0.0,0.0,1.00877637182,-1.4755225613,-0.0202175790605,0.0,0.0,0.0,0.0,-0.127298727632
1970/01/01/02:01:34.279000,176,0,0,world,8,1479,0.0,0.0,0.0,1.12448658044,-1.50503978963,-0.0178089277079,0.0,0.0,0.0,0.0,-0.138786479831
1970/01/01/02:01:34.314000,177,0,0,world,8,1479,0.0,0.0,0.0,1.18028173842,-1.4173786519,-0.0156117161356,0.0,0.0,0.0,0.0,-0.128845915198
1970/01/01/02:01:34.349000,178,0,0,world,8,1479,0.0,0.0,0.0,1.21062897019,-1.32944928964,-0.0120023441232,0.0,0.0,0.0,0.0,-0.127433434129
1970/01/01/02:01:34.381000,179,0,0,world,8,1479,0.0,0.0,0.0,1.07228171033,-1.17121796644,-0.00999071140572,0.0,0.0,0.0,0.0,-0.106170915067
1970/01/01/02:01:34.416000,180,0,0,world,8,1479,0.0,0.0,0.0,0.965794865579,-1.09688020904,-0.0116891570399,0.0,0.0,0.0,0.0,-0.0963060706854
1970/01/01/02:01:34.446000,181,0,0,world,8,1479,0.0,0.0,0.0,0.876832954664,-1.07999899846,-0.0105414063399,0.0,0.0,0.0,0.0,-0.10640951246
1970/01/01/02:01:34.484000,182,0,0,world,8,1479,0.0,0.0,0.0,0.779850958001,-1.05546964155,-0.00680629972703,0.0,0.0,0.0,0.0,-0.121657237411
1970/01/01/02:01:34.513000,183,0,0,world,8,1479,0.0,0.0,0.0,0.804290728307,-0.991295815723,-0.00459345814153,0.0,0.0,0.0,0.0,-0.119652345777
1970/01/01/02:01:34.561000,184,0,0,world,8,1479,0.0,0.0,0.0,0.798088760392,-0.963794923214,0.00627973888775,0.0,0.0,0.0,0.0,-0.17329134047
1970/01/01/02:01:34.581000,185,0,0,world,8,1479,0.0,0.0,0.0,0.778942673226,-0.913195822423,0.00723779218403,0.0,0.0,0.0,0.0,-0.176186934114
1970/01/01/02:01:34.615000,186,0,0,world,8,1479,0.0,0.0,0.0,0.778591290931,-0.758035439587,0.0077895859449,0.0,0.0,0.0,0.0,-0.169293060899
1970/01/01/02:01:34.646000,187,0,0,world,8,1479,0.0,0.0,0.0,0.649538604618,-0.649172849199,0.00754561766015,0.0,0.0,0.0,0.0,-0.189837634563
1970/01/01/02:01:34.682000,188,0,0,world,8,1479,0.0,0.0,0.0,0.530056997362,-0.557546915292,0.00328047073969,0.0,0.0,0.0,0.0,-0.192762538791
1970/01/01/02:01:34.714000,189,0,0,world,8,1479,0.0,0.0,0.0,0.3415955452,-0.489787942905,-0.00218541657682,0.0,0.0,0.0,0.0,-0.219824373722
1970/01/01/02:01:34.739000,190,0,0,world,8,1479,0.0,0.0,0.0,0.196283873849,-0.390281885743,-0.0132373588723,0.0,0.0,0.0,0.0,-0.234523683786
1970/01/01/02:01:34.782000,191,0,0,world,8,1479,0.0,0.0,0.0,0.0255964567603,-0.472734634558,-0.0215647909767,0.0,0.0,0.0,0.0,-0.311027526855
1970/01/01/02:01:34.816000,192,0,0,world,8,1479,0.0,0.0,0.0,-0.129987650938,-0.625769176473,-0.0402293639079,0.0,0.0,0.0,0.0,-0.389326959848
1970/01/01/02:01:34.848000,193,0,0,world,8,1479,0.0,0.0,0.0,-0.22635694243,-0.400080410995,-0.0425849841791,0.0,0.0,0.0,0.0,-0.364394843578
1970/01/01/02:01:34.877000,194,0,0,world,8,1479,0.0,0.0,0.0,-0.269202447724,-0.333657053898,-0.0556330968893,0.0,0.0,0.0,0.0,-0.37136054039
1970/01/01/02:01:34.920000,195,0,0,world,8,1479,0.0,0.0,0.0,-0.361658701163,-0.137456404885,-0.055962519469,0.0,0.0,0.0,0.0,-0.359190940857
1970/01/01/02:01:34.952000,196,0,0,world,8,1479,0.0,0.0,0.0,-0.185775884312,0.202898547251,-0.0506739894824,0.0,0.0,0.0,0.0,-0.256600528955
1970/01/01/02:01:34.985000,197,0,0,world,8,1479,0.0,0.0,0.0,-0.1463640591,0.283114774805,-0.0429442469881,0.0,0.0,0.0,0.0,-0.248174861073
1970/01/01/02:01:35.023000,198,0,0,world,8,1479,0.0,0.0,0.0,0.00309215173582,0.896121041039,-0.0287470501396,0.0,0.0,0.0,0.0,-0.0849443674088
1970/01/01/02:01:35.052000,199,0,0,world,8,1479,0.0,0.0,0.0,0.129035673978,0.985384717109,-0.0264911914379,0.0,0.0,0.0,0.0,-0.0484440103173
1970/01/01/02:01:35.081000,200,0,0,world,8,1479,0.0,0.0,0.0,0.154683497594,1.12980712467,-0.0168666123389,0.0,0.0,0.0,0.0,-0.0141172949225
1970/01/01/02:01:35.110000,201,0,0,world,8,1479,0.0,0.0,0.0,0.230531456411,1.24718440382,-0.0115318481747,0.0,0.0,0.0,0.0,0.00991041120142
1970/01/01/02:01:35.147000,202,0,0,world,8,1479,0.0,0.0,0.0,0.206980804878,0.936285032095,-0.0152029653998,0.0,0.0,0.0,0.0,-0.10088468343
1970/01/01/02:01:35.177000,203,0,0,world,8,1479,0.0,0.0,0.0,0.23984078279,1.02424433497,-0.00740703635667,0.0,0.0,0.0,0.0,-0.0704311355948
1970/01/01/02:01:35.213000,204,0,0,world,8,1479,0.0,0.0,0.0,0.252079186594,0.854651519644,-0.0207531608584,0.0,0.0,0.0,0.0,-0.137767314911
1970/01/01/02:01:35.251000,205,0,0,world,8,1479,0.0,0.0,0.0,0.175535544475,0.712142195371,-0.0290906043588,0.0,0.0,0.0,0.0,-0.206387192011
1970/01/01/02:01:35.283000,206,0,0,world,8,1479,0.0,0.0,0.0,0.206850949443,0.723561435203,-0.0139516672896,0.0,0.0,0.0,0.0,-0.193937003613
1970/01/01/02:01:35.315000,207,0,0,world,8,1479,0.0,0.0,0.0,0.12800017435,0.546421364612,-0.0243046637182,0.0,0.0,0.0,0.0,-0.282041013241
1970/01/01/02:01:35.347000,208,0,0,world,8,1479,0.0,0.0,0.0,0.0710846127151,0.428290446515,-0.0283896377896,0.0,0.0,0.0,0.0,-0.333255141973
1970/01/01/02:01:35.382000,209,0,0,world,8,1479,0.0,0.0,0.0,0.032622453913,0.385715502023,-0.0211196409584,0.0,0.0,0.0,0.0,-0.369229137897
1970/01/01/02:01:35.412000,210,0,0,world,8,1479,0.0,0.0,0.0,-0.0385659486668,0.289781476124,-0.0304111323258,0.0,0.0,0.0,0.0,-0.426036775112
1970/01/01/02:01:35.450000,211,0,0,world,8,1479,0.0,0.0,0.0,-0.0588361966043,0.313305861633,-0.0210325255437,0.0,0.0,0.0,0.0,-0.43815907836
1970/01/01/02:01:35.481000,212,0,0,world,8,1479,0.0,0.0,0.0,-0.0167018299551,0.518227952497,-0.0142321214751,0.0,0.0,0.0,0.0,-0.404220342636
1970/01/01/02:01:35.518000,213,0,0,world,8,1479,0.0,0.0,0.0,0.068292996372,0.811831056062,-0.000698067260198,0.0,0.0,0.0,0.0,-0.33176523447
1970/01/01/02:01:35.557000,214,0,0,world,8,1479,0.0,0.0,0.0,0.085779643098,0.913854834919,0.00414659986246,0.0,0.0,0.0,0.0,-0.291122049093
1970/01/01/02:01:35.580000,215,0,0,world,8,1479,0.0,0.0,0.0,-0.0106587392759,0.886729711615,0.0178973632481,0.0,0.0,0.0,0.0,-0.31889513135
1970/01/01/02:01:35.613000,216,0,0,world,8,1479,0.0,0.0,0.0,0.0794424304739,0.936346993918,0.0166610546812,0.0,0.0,0.0,0.0,-0.253284186125
1970/01/01/02:01:35.644000,217,0,0,world,8,1479,0.0,0.0,0.0,0.011706922987,0.728353540883,0.0233407404582,0.0,0.0,0.0,0.0,-0.282519131899
1970/01/01/02:01:35.681000,218,0,0,world,8,1479,0.0,0.0,0.0,0.0463959936121,0.747495123733,0.0286857483073,0.0,0.0,0.0,0.0,-0.242448464036
1970/01/01/02:01:35.711000,219,0,0,world,8,1479,0.0,0.0,0.0,0.0888642701827,0.779420859246,0.0275936750852,0.0,0.0,0.0,0.0,-0.225025311112
1970/01/01/02:01:35.748000,220,0,0,world,8,1479,0.0,0.0,0.0,0.0343889749965,0.654523906986,0.0309654871401,0.0,0.0,0.0,0.0,-0.275111317635
1970/01/01/02:01:35.786000,221,0,0,world,8,1479,0.0,0.0,0.0,-0.0464722606072,0.550162422524,0.0335400631349,0.0,0.0,0.0,0.0,-0.317292898893
1970/01/01/02:01:35.816000,222,0,0,world,8,1479,0.0,0.0,0.0,-0.00666800206309,0.67394777746,0.0362693776248,0.0,0.0,0.0,0.0,-0.259669572115
1970/01/01/02:01:35.848000,223,0,0,world,8,1479,0.0,0.0,0.0,-0.0273842840071,0.6095864827,0.0304503834008,0.0,0.0,0.0,0.0,-0.279503673315
1970/01/01/02:01:35.878000,224,0,0,world,8,1479,0.0,0.0,0.0,-0.0109008928135,0.582287170359,0.0271762010284,0.0,0.0,0.0,0.0,-0.266138404608
1970/01/01/02:01:35.913000,225,0,0,world,8,1479,0.0,0.0,0.0,-0.032013609944,0.455039169261,0.029747398726,0.0,0.0,0.0,0.0,-0.254191428423
1970/01/01/02:01:35.947000,226,0,0,world,8,1479,0.0,0.0,0.0,0.0136473459637,0.478710201808,0.0285267215775,0.0,0.0,0.0,0.0,-0.186833932996
1970/01/01/02:01:35.989000,227,0,0,world,8,1479,0.0,0.0,0.0,0.0262767718841,0.368078255476,0.0290220226625,0.0,0.0,0.0,0.0,-0.17410261929
1970/01/01/02:01:36.029000,228,0,0,world,8,1479,0.0,0.0,0.0,0.0324925043695,0.28091273244,0.0263158237174,0.0,0.0,0.0,0.0,-0.145248070359
1970/01/01/02:01:36.051000,229,0,0,world,8,1479,0.0,0.0,0.0,0.0310705549652,0.273504750324,0.0224426085683,0.0,0.0,0.0,0.0,-0.0958861410618
1970/01/01/02:01:36.085000,230,0,0,world,8,1479,0.0,0.0,0.0,0.0832622237268,0.441803104829,0.014231729782,0.0,0.0,0.0,0.0,0.0125623662025
1970/01/01/02:01:36.117000,231,0,0,world,8,1479,0.0,0.0,0.0,0.0245081326896,0.366029878371,0.0128622804544,0.0,0.0,0.0,0.0,0.0442674048245
1970/01/01/02:01:36.153000,232,0,0,world,8,1479,0.0,0.0,0.0,3.40949355343,2.57143002215,0.00419338346851,0.0,0.0,0.0,0.0,1.0241008997
1970/01/01/02:01:36.195000,233,0,0,world,8,1479,0.0,0.0,0.0,0.00524672291254,0.316574634827,0.00330422529786,0.0,0.0,0.0,0.0,0.0932436659932
1970/01/01/02:01:36.235000,234,0,0,world,8,1479,0.0,0.0,0.0,0.00064025875284,0.291361806175,0.00113622688803,0.0,0.0,0.0,0.0,0.102343045175
1970/01/01/02:01:36.264000,235,0,0,world,8,1479,0.0,0.0,0.0,3.20977719368,-2.51517711442,-0.00235304561792,0.0,0.0,0.0,0.0,-0.949090600014
1970/01/01/02:01:36.297000,236,0,0,world,8,1479,0.0,0.0,0.0,3.22987999743,-3.14424066575,-0.00270630671242,0.0,0.0,0.0,0.0,-1.19096827507
1970/01/01/02:01:36.322000,237,0,0,world,8,1479,0.0,0.0,0.0,-0.0169714012052,0.256815715325,-0.000438366633317,0.0,0.0,0.0,0.0,0.11452447623
1970/01/01/02:01:36.355000,238,0,0,world,8,1479,0.0,0.0,0.0,-0.0191537838182,0.193725943578,-0.000830483048628,0.0,0.0,0.0,0.0,0.102674409747
1970/01/01/02:01:36.383000,239,0,0,world,8,1479,0.0,0.0,0.0,-0.0134045339494,0.193348555946,-0.000962704961353,0.0,0.0,0.0,0.0,0.117929965258
1970/01/01/02:01:36.422000,240,0,0,world,8,1479,0.0,0.0,0.0,-0.0160114490765,0.195804254375,-0.00108079057927,0.0,0.0,0.0,0.0,0.133567720652
1970/01/01/02:01:36.451000,241,0,0,world,8,1479,0.0,0.0,0.0,-0.02025491633,0.132161626319,-0.000749898131515,0.0,0.0,0.0,0.0,0.125029310584
1970/01/01/02:01:36.484000,242,0,0,world,8,1479,0.0,0.0,0.0,-0.0248776497327,0.112290975304,-0.000713132116576,0.0,0.0,0.0,0.0,0.130472496152
1970/01/01/02:01:36.513000,243,0,0,world,8,1479,0.0,0.0,0.0,-0.0251678746662,0.0857978432161,-0.000136906392948,0.0,0.0,0.0,0.0,0.130267113447
1970/01/01/02:01:36.557000,244,0,0,world,8,1479,0.0,0.0,0.0,-0.0250031794352,0.0264448633229,-4.22456063945e-05,0.0,0.0,0.0,0.0,0.118780404329
1970/01/01/02:01:36.584000,245,0,0,world,8,1479,0.0,0.0,0.0,-0.0261754676018,0.0324923223993,0.000784997163476,0.0,0.0,0.0,0.0,0.131638050079
1970/01/01/02:01:36.627000,246,0,0,world,8,1479,0.0,0.0,0.0,-0.0324416987591,0.0953204983461,0.00205411895344,0.0,0.0,0.0,0.0,0.166736662388
1970/01/01/02:01:36.657000,247,0,0,world,8,1479,0.0,0.0,0.0,-0.0207146566252,0.0223382365772,0.00222886597259,0.0,0.0,0.0,0.0,0.148916423321
1970/01/01/02:01:36.683000,248,0,0,world,8,1479,0.0,0.0,0.0,-0.016618391843,-0.0726415335842,0.00361485242166,0.0,0.0,0.0,0.0,0.125088229775
1970/01/01/02:01:36.711000,249,0,0,world,8,1479,0.0,0.0,0.0,-0.014392370871,-0.09045194492,0.00465129817264,0.0,0.0,0.0,0.0,0.124266073108
1970/01/01/02:01:36.749000,250,0,0,world,8,1479,0.0,0.0,0.0,-0.0156291132693,-0.105450492354,0.00591913753505,0.0,0.0,0.0,0.0,0.124995552003
1970/01/01/02:01:36.788000,251,0,0,world,8,1479,0.0,0.0,0.0,-0.0268930642157,-0.0942348342525,0.00713302128994,0.0,0.0,0.0,0.0,0.140996471047
1970/01/01/02:01:36.819000,252,0,0,world,8,1479,0.0,0.0,0.0,-0.0245246625237,-0.128633900029,0.00982128271635,0.0,0.0,0.0,0.0,0.140113785863
1970/01/01/02:01:36.850000,253,0,0,world,8,1479,0.0,0.0,0.0,-0.0167074489472,-0.180126206753,0.0126467025824,0.0,0.0,0.0,0.0,0.132212683558
1970/01/01/02:01:36.886000,254,0,0,world,8,1479,0.0,0.0,0.0,-0.00376206255764,-0.235353606945,0.0154420623394,0.0,0.0,0.0,0.0,0.11961992085
1970/01/01/02:01:36.918000,255,0,0,world,8,1479,0.0,0.0,0.0,-0.0110901201911,-0.188448605942,0.017133678787,0.0,0.0,0.0,0.0,0.147335708141
1970/01/01/02:01:36.951000,256,0,0,world,8,1479,0.0,0.0,0.0,-0.00673692619887,-0.233417147522,0.0189167009776,0.0,0.0,0.0,0.0,0.139976292849
1970/01/01/02:01:36.985000,257,0,0,world,8,1479,0.0,0.0,0.0,0.0145287502673,-0.303560098509,0.0217651862736,0.0,0.0,0.0,0.0,0.121805526316
1970/01/01/02:01:37.014000,258,0,0,world,8,1479,0.0,0.0,0.0,0.0195146903815,-0.472021517519,0.0171057738125,0.0,0.0,0.0,0.0,0.0767509192228
1970/01/01/02:01:37.051000,259,0,0,world,8,1479,0.0,0.0,0.0,7.78007030677,-15.8977441429,0.0127388097623,0.0,0.0,0.0,0.0,-6.14506340027
1970/01/01/02:01:37.084000,260,0,0,world,8,1479,0.0,0.0,0.0,7.92544311662,-15.8108480254,0.0149603434603,0.0,0.0,0.0,0.0,-6.12122964859
1970/01/01/02:01:37.114000,261,0,0,world,8,1479,0.0,0.0,0.0,-0.0124164897652,-0.486652281677,0.0241813297001,0.0,0.0,0.0,0.0,0.0985021442175
1970/01/01/02:01:37.150000,262,0,0,world,8,1479,0.0,0.0,0.0,-0.0285273479435,-0.501834451127,0.0281991315395,0.0,0.0,0.0,0.0,0.109548225999
1970/01/01/02:01:37.187000,263,0,0,world,8,1479,0.0,0.0,0.0,9.22921840529,-17.4371746666,0.026606019114,0.0,0.0,0.0,0.0,-6.73484802246
1970/01/01/02:01:37.210000,264,0,0,world,8,1479,0.0,0.0,0.0,0.0780606147321,-0.674199998063,0.038407859336,0.0,0.0,0.0,0.0,0.0652781575918
1970/01/01/02:01:37.250000,265,0,0,world,8,1479,0.0,0.0,0.0,0.0625911895888,-0.670400204079,0.0408014182831,0.0,0.0,0.0,0.0,0.0761857405305
1970/01/01/02:01:37.282000,266,0,0,world,8,1479,0.0,0.0,0.0,0.0474754755598,-0.660896206078,0.0420042409536,0.0,0.0,0.0,0.0,0.0864536240697
1970/01/01/02:01:37.316000,267,0,0,world,8,1479,0.0,0.0,0.0,9.49587592639,-15.8883213055,0.0361190337039,0.0,0.0,0.0,0.0,-6.22103977203
1970/01/01/02:01:37.351000,268,0,0,world,8,1479,0.0,0.0,0.0,9.50756608506,-15.5945620049,0.0384418840904,0.0,0.0,0.0,0.0,-6.11194896698
1970/01/01/02:01:37.389000,269,0,0,world,8,1479,0.0,0.0,0.0,-0.0315843608962,-0.620397049051,0.0415638695974,0.0,0.0,0.0,0.0,0.129952862859
1970/01/01/02:01:37.418000,270,0,0,world,8,1479,0.0,0.0,0.0,-0.0290492086901,-0.631416972808,0.0432555852368,0.0,0.0,0.0,0.0,0.128784611821
1970/01/01/02:01:37.449000,271,0,0,world,8,1479,0.0,0.0,0.0,-0.0114643193851,-0.693642100803,0.0429405151919,0.0,0.0,0.0,0.0,0.109235264361
1970/01/01/02:01:37.479000,272,0,0,world,8,1479,0.0,0.0,0.0,0.0112306534795,-0.694506161448,0.0475173438725,0.0,0.0,0.0,0.0,0.105102226138
1970/01/01/02:01:37.513000,273,0,0,world,8,1479,0.0,0.0,0.0,-0.0614181374958,-0.626358948498,0.0459869325452,0.0,0.0,0.0,0.0,0.138177543879
1970/01/01/02:01:37.556000,274,0,0,world,8,1479,0.0,0.0,0.0,-0.055163863628,-0.61579738154,0.0409350148292,0.0,0.0,0.0,0.0,0.141533330083
1970/01/01/02:01:37.588000,275,0,0,world,8,1479,0.0,0.0,0.0,-0.106889706901,-0.53160422778,0.032973313742,0.0,0.0,0.0,0.0,0.162900492549
1970/01/01/02:01:37.615000,276,0,0,world,8,1479,0.0,0.0,0.0,-0.152185682693,-0.380719752782,0.0269472128797,0.0,0.0,0.0,0.0,0.198296010494
1970/01/01/02:01:37.650000,277,0,0,world,8,1479,0.0,0.0,0.0,-0.108904630827,-0.375408686427,0.0177129222036,0.0,0.0,0.0,0.0,0.178113549948
1970/01/01/02:01:37.680000,278,0,0,world,8,1479,0.0,0.0,0.0,-0.0714410276896,-0.328060961876,0.0100667329702,0.0,0.0,0.0,0.0,0.163243412971
1970/01/01/02:01:37.714000,279,0,0,world,8,1479,0.0,0.0,0.0,-0.0461695932852,-0.238120041068,0.00439041243009,0.0,0.0,0.0,0.0,0.158058702946
1970/01/01/02:01:37.743000,280,0,0,world,8,1479,0.0,0.0,0.0,0.0212051165862,-0.262171380794,0.000974102234073,0.0,0.0,0.0,0.0,0.100035503507
1970/01/01/02:01:37.779000,281,0,0,world,8,1479,0.0,0.0,0.0,0.0383916400444,-0.154068799204,0.000376520682009,0.0,0.0,0.0,0.0,0.0945647358894
1970/01/01/02:01:37.815000,282,0,0,world,8,1479,0.0,0.0,0.0,0.062993687761,-0.140571555227,0.000574989584832,0.0,0.0,0.0,0.0,0.0525489076972
1970/01/01/02:01:37.846000,283,0,0,world,8,1479,0.0,0.0,0.0,0.0857692055092,-0.132631900637,0.00135487456909,0.0,0.0,0.0,0.0,0.011978212744
1970/01/01/02:01:37.877000,284,0,0,world,8,1479,0.0,0.0,0.0,0.088870930571,-0.112421197064,0.00242031178028,0.0,0.0,0.0,0.0,-0.0159569755197
1970/01/01/02:01:37.914000,285,0,0,world,8,1479,0.0,0.0,0.0,0.0964951484113,-0.119425559469,0.000439945221367,0.0,0.0,0.0,0.0,-0.0536302141845
1970/01/01/02:01:37.940000,286,0,0,world,8,1479,0.0,0.0,0.0,0.10484899917,-0.0973479158498,-0.00373208806528,0.0,0.0,0.0,0.0,-0.0719411745667
1970/01/01/02:01:37.980000,287,0,0,world,8,1479,0.0,0.0,0.0,0.114624829447,-0.123557205874,-0.00439697390599,0.0,0.0,0.0,0.0,-0.108825735748
1970/01/01/02:01:38.014000,288,0,0,world,8,1479,0.0,0.0,0.0,0.096560283791,-0.0957290899049,-0.00423391945608,0.0,0.0,0.0,0.0,-0.117461510003
1970/01/01/02:01:38.047000,289,0,0,world,8,1479,0.0,0.0,0.0,0.12271762553,-0.126850770347,-0.00794045689465,0.0,0.0,0.0,0.0,-0.131425112486
1970/01/01/02:01:38.079000,290,0,0,world,8,1479,0.0,0.0,0.0,0.121257533288,-0.126581292633,-0.00849938147147,0.0,0.0,0.0,0.0,-0.135700404644
1970/01/01/02:01:38.112000,291,0,0,world,8,1479,0.0,0.0,0.0,0.127292220793,-0.143436636967,-0.00822983877678,0.0,0.0,0.0,0.0,-0.139868289232
1970/01/01/02:01:38.149000,292,0,0,world,8,1479,0.0,0.0,0.0,0.128601949612,-0.158086675884,-0.00715680107245,0.0,0.0,0.0,0.0,-0.140313014388
1970/01/01/02:01:38.179000,293,0,0,world,8,1479,0.0,0.0,0.0,0.130783674064,-0.147968254237,-0.00902159848185,0.0,0.0,0.0,0.0,-0.126340121031
1970/01/01/02:01:38.213000,294,0,0,world,8,1479,0.0,0.0,0.0,0.112411567376,-0.247929606836,-0.00395634370051,0.0,0.0,0.0,0.0,-0.158807829022
1970/01/01/02:01:38.248000,295,0,0,world,8,1479,0.0,0.0,0.0,0.126787197426,-0.135383951982,-0.00354409951054,0.0,0.0,0.0,0.0,-0.101604923606
1970/01/01/02:01:38.280000,296,0,0,world,8,1479,0.0,0.0,0.0,0.108620604858,-0.210232231721,0.000492780265284,0.0,0.0,0.0,0.0,-0.125110596418
1970/01/01/02:01:38.317000,297,0,0,world,8,1479,0.0,0.0,0.0,0.0952386605035,-0.213768737201,-0.000612007358217,0.0,0.0,0.0,0.0,-0.109842546284
1970/01/01/02:01:38.351000,298,0,0,world,8,1479,0.0,0.0,0.0,0.0937124559306,-0.222187767043,0.000234040401512,0.0,0.0,0.0,0.0,-0.105553068221
1970/01/01/02:01:38.375000,299,0,0,world,8,1479,0.0,0.0,0.0,0.0958552465744,-0.160310354963,0.000298801190395,0.0,0.0,0.0,0.0,-0.0744695663452
1970/01/01/02:01:38.415000,300,0,0,world,8,1479,0.0,0.0,0.0,0.0923744395838,-0.142022232778,0.00050705776021,0.0,0.0,0.0,0.0,-0.0617785267532
1970/01/01/02:01:38.447000,301,0,0,world,8,1479,0.0,0.0,0.0,0.0756447351171,-0.138986615314,0.000857443957854,0.0,0.0,0.0,0.0,-0.0528834834695
1970/01/01/02:01:38.481000,302,0,0,world,8,1479,0.0,0.0,0.0,0.0823274802006,-0.0717729909899,0.000357556422391,0.0,0.0,0.0,0.0,-0.0287518464029
1970/01/01/02:01:38.513000,303,0,0,world,8,1479,0.0,0.0,0.0,0.0634861180363,-0.0746968423411,-0.000232898028677,0.0,0.0,0.0,0.0,-0.0403258576989
1970/01/01/02:01:38.561000,304,0,0,world,8,1479,0.0,0.0,0.0,0.0542929242723,-0.0614473650988,-0.00127541875492,0.0,0.0,0.0,0.0,-0.0588355213404
1970/01/01/02:01:38.585000,305,0,0,world,8,1479,0.0,0.0,0.0,0.0522153214045,0.0554755264901,-0.0019826302283,0.0,0.0,0.0,0.0,-0.030041936785
1970/01/01/02:01:38.617000,306,0,0,world,8,1479,0.0,0.0,0.0,0.0400654359953,0.0338062342596,-0.00195674426839,0.0,0.0,0.0,0.0,-0.0412631705403
1970/01/01/02:01:38.649000,307,0,0,world,8,1479,0.0,0.0,0.0,0.0348677588141,0.0594902611765,-0.0023724887661,0.0,0.0,0.0,0.0,-0.0471458993852
1970/01/01/02:01:38.682000,308,0,0,world,8,1479,0.0,0.0,0.0,0.0338098141894,0.124880120026,-0.00331480606263,0.0,0.0,0.0,0.0,-0.0390879847109
1970/01/01/02:01:38.717000,309,0,0,world,8,1479,0.0,0.0,0.0,0.0248427957806,0.213347874948,-0.00328204494777,0.0,0.0,0.0,0.0,-0.0435708612204
1970/01/01/02:01:38.752000,310,0,0,world,8,1479,0.0,0.0,0.0,0.0182106764095,0.0996805043257,-0.00507982677203,0.0,0.0,0.0,0.0,-0.108198359609
1970/01/01/02:01:38.787000,311,0,0,world,8,1479,0.0,0.0,0.0,0.0251650282263,0.351556992936,-0.00424527046338,0.0,0.0,0.0,0.0,-0.0388019755483
1970/01/01/02:01:38.817000,312,0,0,world,8,1479,0.0,0.0,0.0,0.0224301208489,0.341904203364,-0.0050352069186,0.0,0.0,0.0,0.0,-0.0632243901491
1970/01/01/02:01:38.855000,313,0,0,world,8,1479,0.0,0.0,0.0,0.0192665841427,0.314874225634,-0.00377147094539,0.0,0.0,0.0,0.0,-0.0876011550426
1970/01/01/02:01:38.884000,314,0,0,world,8,1479,0.0,0.0,0.0,0.024689906498,0.394919614806,-0.00272588684444,0.0,0.0,0.0,0.0,-0.0734385848045
1970/01/01/02:01:38.916000,315,0,0,world,8,1479,0.0,0.0,0.0,0.0403875021539,0.49999444547,-0.00282412379917,0.0,0.0,0.0,0.0,-0.0513361990452
1970/01/01/02:01:38.951000,316,0,0,world,8,1479,0.0,0.0,0.0,0.0449377484458,0.526425663663,-0.00339449009597,0.0,0.0,0.0,0.0,-0.0606872290373
1970/01/01/02:01:38.986000,317,0,0,world,8,1479,0.0,0.0,0.0,0.0468326081648,0.53935830923,-0.00411179169545,0.0,0.0,0.0,0.0,-0.0757910981774
1970/01/01/02:01:39.016000,318,0,0,world,8,1479,0.0,0.0,0.0,0.0395781255848,0.514080484658,-0.00255917640193,0.0,0.0,0.0,0.0,-0.104410581291
1970/01/01/02:01:39.047000,319,0,0,world,8,1479,0.0,0.0,0.0,0.0378628853316,0.524364679098,-0.00280708064478,0.0,0.0,0.0,0.0,-0.120083108544
1970/01/01/02:01:39.079000,320,0,0,world,8,1479,0.0,0.0,0.0,0.0445340824865,0.546458795045,-0.00353778570747,0.0,0.0,0.0,0.0,-0.128047779202
1970/01/01/02:01:39.116000,321,0,0,world,8,1479,0.0,0.0,0.0,0.0488693414497,0.551394714217,-0.00310179456433,0.0,0.0,0.0,0.0,-0.134455367923
1970/01/01/02:01:39.149000,322,0,0,world,8,1479,0.0,0.0,0.0,0.0514120163337,0.581099627549,-0.00336390353716,0.0,0.0,0.0,0.0,-0.12626029551
1970/01/01/02:01:39.184000,323,0,0,world,8,1479,0.0,0.0,0.0,0.0677997131218,0.659063904689,-0.00309138253744,0.0,0.0,0.0,0.0,-0.093631438911
1970/01/01/02:01:39.218000,324,0,0,world,8,1479,0.0,0.0,0.0,0.0523872881879,0.610994008994,-0.00185447294259,0.0,0.0,0.0,0.0,-0.10811278224
1970/01/01/02:01:39.255000,325,0,0,world,8,1479,0.0,0.0,0.0,0.0445105346615,0.588781397234,-0.000837802587391,0.0,0.0,0.0,0.0,-0.113314494491
1970/01/01/02:01:39.286000,326,0,0,world,8,1479,0.0,0.0,0.0,4.84482293815,4.42600203617,0.00548751272578,0.0,0.0,0.0,0.0,1.86712801456
1970/01/01/02:01:39.328000,327,0,0,world,8,1479,0.0,0.0,0.0,4.82344371403,4.52912027343,0.00491790383184,0.0,0.0,0.0,0.0,1.90026795864
1970/01/01/02:01:39.354000,328,0,0,world,8,1479,0.0,0.0,0.0,4.80080749178,4.71301682891,0.00434937301961,0.0,0.0,0.0,0.0,1.96160364151
1970/01/01/02:01:39.384000,329,0,0,world,8,1479,0.0,0.0,0.0,4.75013022603,4.78894129363,0.0034136624931,0.0,0.0,0.0,0.0,1.98211443424
1970/01/01/02:01:39.417000,330,0,0,world,8,1479,0.0,0.0,0.0,0.0209667590444,0.526268774034,-0.000258817725944,0.0,0.0,0.0,0.0,-0.0817271023989
1970/01/01/02:01:39.445000,331,0,0,world,8,1479,0.0,0.0,0.0,0.03128912211,0.5825683504,-0.00456066657348,0.0,0.0,0.0,0.0,-0.0599686875939
1970/01/01/02:01:39.481000,332,0,0,world,8,1479,0.0,0.0,0.0,0.0318880408357,0.564405590064,-0.0103793243388,0.0,0.0,0.0,0.0,-0.0784223824739
1970/01/01/02:01:39.513000,333,0,0,world,8,1479,0.0,0.0,0.0,0.0381468801302,0.508144178215,-0.0158617562106,0.0,0.0,0.0,0.0,-0.0947239547968
1970/01/01/02:01:39.557000,334,0,0,world,8,1479,0.0,0.0,0.0,0.0299049670028,0.45644618221,-0.016946747238,0.0,0.0,0.0,0.0,-0.096289716661
1970/01/01/02:01:39.580000,335,0,0,world,8,1479,0.0,0.0,0.0,0.0375838480339,0.481908304845,-0.0141964365769,0.0,0.0,0.0,0.0,-0.0595264360309
1970/01/01/02:01:39.614000,336,0,0,world,8,1479,0.0,0.0,0.0,0.0460688837663,0.409198127542,-0.0116434044555,0.0,0.0,0.0,0.0,-0.0544440411031
1970/01/01/02:01:39.643000,337,0,0,world,8,1479,0.0,0.0,0.0,0.0322321016405,0.385552991477,-0.00577480366316,0.0,0.0,0.0,0.0,-0.0219119414687
1970/01/01/02:01:39.680000,338,0,0,world,8,1479,0.0,0.0,0.0,0.0354772588429,0.3345611681,-0.00160407159249,0.0,0.0,0.0,0.0,0.00260613230057
1970/01/01/02:01:39.716000,339,0,0,world,8,1479,0.0,0.0,0.0,0.0226255083499,0.299134749002,0.00123346051648,0.0,0.0,0.0,0.0,0.0319233648479
1970/01/01/02:01:39.747000,340,0,0,world,8,1479,0.0,0.0,0.0,0.0175378091008,0.223875223367,0.00187907533888,0.0,0.0,0.0,0.0,0.0421145707369
1970/01/01/02:01:39.782000,341,0,0,world,8,1479,0.0,0.0,0.0,0.0128311099513,0.152905724816,0.000791139977441,0.0,0.0,0.0,0.0,0.0529400184751
1970/01/01/02:01:39.816000,342,0,0,world,8,1479,0.0,0.0,0.0,0.000563846976974,0.0836055608344,-0.00128167486445,0.0,0.0,0.0,0.0,0.0611763671041
1970/01/01/02:01:39.848000,343,0,0,world,8,1479,0.0,0.0,0.0,0.00115624478552,0.0810892397128,-0.00541829115658,0.0,0.0,0.0,0.0,0.093516215682
1970/01/01/02:01:39.884000,344,0,0,world,8,1479,0.0,0.0,0.0,0.000478893229412,-0.0272484519466,-0.00739920895181,0.0,0.0,0.0,0.0,0.0911141559482
1970/01/01/02:01:39.916000,345,0,0,world,8,1479,0.0,0.0,0.0,-0.0100899646131,-0.0356686049724,-0.0117946330171,0.0,0.0,0.0,0.0,0.117063201964
1970/01/01/02:01:39.949000,346,0,0,world,8,1479,0.0,0.0,0.0,-0.013198682673,-0.0833070679209,-0.0138858907736,0.0,0.0,0.0,0.0,0.126800611615
1970/01/01/02:01:39.980000,347,0,0,world,8,1479,0.0,0.0,0.0,-0.0135606878507,-0.162318426105,-0.0140381261213,0.0,0.0,0.0,0.0,0.123554505408
1970/01/01/02:01:40.014000,348,0,0,world,8,1479,0.0,0.0,0.0,-0.0152496868092,-0.172790329711,-0.0155285048432,0.0,0.0,0.0,0.0,0.145110711455
1970/01/01/02:01:40.041000,349,0,0,world,8,1479,0.0,0.0,0.0,-0.0159488180995,-0.203755815198,-0.0158281621077,0.0,0.0,0.0,0.0,0.156090721488
1970/01/01/02:01:40.082000,350,0,0,world,8,1479,0.0,0.0,0.0,-0.0114753248861,-0.311916976202,-0.0160022116924,0.0,0.0,0.0,0.0,0.134821116924
1970/01/01/02:01:40.116000,351,0,0,world,8,1479,0.0,0.0,0.0,0.00495720249733,-0.312608457158,-0.0167653442536,0.0,0.0,0.0,0.0,0.150206938386
1970/01/01/02:01:40.146000,352,0,0,world,8,1479,0.0,0.0,0.0,-0.000953912774775,-0.250451275541,-0.0187389645489,0.0,0.0,0.0,0.0,0.187443941832
1970/01/01/02:01:40.177000,353,0,0,world,8,1479,0.0,0.0,0.0,-0.0071419652186,-0.456706256729,-0.0154679310677,0.0,0.0,0.0,0.0,0.132668048143
1970/01/01/02:01:40.210000,354,0,0,world,8,1479,0.0,0.0,0.0,-0.0205005518875,-0.360202343158,-0.0124503498296,0.0,0.0,0.0,0.0,0.17157612741
1970/01/01/02:01:40.245000,355,0,0,world,8,1479,0.0,0.0,0.0,-0.0459763984336,-0.286620586698,-0.010723650749,0.0,0.0,0.0,0.0,0.198918059468
1970/01/01/02:01:40.282000,356,0,0,world,8,1479,0.0,0.0,0.0,-0.0503552500998,-0.289571071369,-0.00964165257729,0.0,0.0,0.0,0.0,0.206308335066
1970/01/01/02:01:40.315000,357,0,0,world,8,1479,0.0,0.0,0.0,-0.0368269965841,-0.307095691688,-0.00899040717605,0.0,0.0,0.0,0.0,0.206871777773
1970/01/01/02:01:40.348000,358,0,0,world,8,1479,0.0,0.0,0.0,-0.0101191677414,-0.372308922147,-0.00971789035713,0.0,0.0,0.0,0.0,0.185876712203
1970/01/01/02:01:40.383000,359,0,0,world,8,1479,0.0,0.0,0.0,-0.0333147258135,-0.353186208388,-0.0118372984871,0.0,0.0,0.0,0.0,0.184482678771
1970/01/01/02:01:40.412000,360,0,0,world,8,1479,0.0,0.0,0.0,-0.0320496797718,-0.220448508285,-0.0133455196344,0.0,0.0,0.0,0.0,0.228573203087
1970/01/01/02:01:40.447000,361,0,0,world,8,1479,0.0,0.0,0.0,-0.0369939989212,-0.265442410919,-0.0112653143611,0.0,0.0,0.0,0.0,0.20238147676
1970/01/01/02:01:40.480000,362,0,0,world,8,1479,0.0,0.0,0.0,-0.0207780658093,-0.275821333913,-0.0116827700822,0.0,0.0,0.0,0.0,0.190450802445
1970/01/01/02:01:40.516000,363,0,0,world,8,1479,0.0,0.0,0.0,0.00948578699258,-0.304896170996,-0.0121445365255,0.0,0.0,0.0,0.0,0.166596487164
1970/01/01/02:01:40.559000,364,0,0,world,8,1479,0.0,0.0,0.0,0.00855541867216,-0.261299682626,-0.0130092464074,0.0,0.0,0.0,0.0,0.166670486331
1970/01/01/02:01:40.589000,365,0,0,world,8,1479,0.0,0.0,0.0,0.0199483362417,-0.269900723052,-0.0118290899446,0.0,0.0,0.0,0.0,0.14371688664
1970/01/01/02:01:40.618000,366,0,0,world,8,1479,0.0,0.0,0.0,0.00727069172775,-0.241841933294,-0.0108991824357,0.0,0.0,0.0,0.0,0.138185083866
1970/01/01/02:01:40.648000,367,0,0,world,8,1479,0.0,0.0,0.0,0.0407310230231,-0.287768728889,-0.0114339768893,0.0,0.0,0.0,0.0,0.109848178923
1970/01/01/02:01:40.679000,368,0,0,world,8,1479,0.0,0.0,0.0,0.0345530967434,-0.250466482212,-0.00871951803308,0.0,0.0,0.0,0.0,0.110698319972
1970/01/01/02:01:40.715000,369,0,0,world,8,1479,0.0,0.0,0.0,0.0214078824164,-0.256323844926,-0.00849452818967,0.0,0.0,0.0,0.0,0.09386074543
1970/01/01/02:01:40.751000,370,0,0,world,8,1479,0.0,0.0,0.0,0.0455939364374,-0.248621101105,-0.00798456700424,0.0,0.0,0.0,0.0,0.0855560302734
1970/01/01/02:01:40.781000,371,0,0,world,8,1479,0.0,0.0,0.0,0.0452223466844,-0.204761865428,-0.00626302276951,0.0,0.0,0.0,0.0,0.0948865562677
1970/01/01/02:01:40.819000,372,0,0,world,8,1479,0.0,0.0,0.0,0.0489214877243,-0.227210718306,-0.0064540865609,0.0,0.0,0.0,0.0,0.0786429047585
1970/01/01/02:01:40.850000,373,0,0,world,8,1479,0.0,0.0,0.0,0.0453991080726,-0.179106099166,-0.00625748633063,0.0,0.0,0.0,0.0,0.0831402018666
1970/01/01/02:01:40.886000,374,0,0,world,8,1479,0.0,0.0,0.0,0.0622242916851,-0.223186128181,-0.00425283184721,0.0,0.0,0.0,0.0,0.0565668344498
1970/01/01/02:01:40.918000,375,0,0,world,8,1479,0.0,0.0,0.0,0.0532713669699,-0.169311606317,-0.00406407460778,0.0,0.0,0.0,0.0,0.0671543926001
1970/01/01/02:01:40.949000,376,0,0,world,8,1479,0.0,0.0,0.0,0.0736633492121,-0.242808502908,-0.00298110108428,0.0,0.0,0.0,0.0,0.0235111676157
1970/01/01/02:01:40.976000,377,0,0,world,8,1479,0.0,0.0,0.0,0.0608033172219,-0.131348801161,-0.00281398750018,0.0,0.0,0.0,0.0,0.0564771667123
1970/01/01/02:01:41.012000,378,0,0,world,8,1479,0.0,0.0,0.0,0.079284161496,-0.141322397162,-0.00263555824449,0.0,0.0,0.0,0.0,0.0437652729452
1970/01/01/02:01:41.049000,379,0,0,world,8,1479,0.0,0.0,0.0,0.0897423815685,-0.136906918354,-0.00223993077099,0.0,0.0,0.0,0.0,0.0345150902867
1970/01/01/02:01:41.079000,380,0,0,world,8,1479,0.0,0.0,0.0,0.0922592118332,-0.133203761946,-0.00177464778729,0.0,0.0,0.0,0.0,0.0262814387679
1970/01/01/02:01:41.117000,381,0,0,world,8,1479,0.0,0.0,0.0,0.0963309552959,-0.123553647913,-0.00135130323296,0.0,0.0,0.0,0.0,0.0229562744498
1970/01/01/02:01:41.149000,382,0,0,world,8,1479,0.0,0.0,0.0,0.110488501126,-0.107257751471,-0.000822919118502,0.0,0.0,0.0,0.0,0.0156361274421
1970/01/01/02:01:41.186000,383,0,0,world,8,1479,0.0,0.0,0.0,0.103720482563,-0.0418831104224,-0.00040630511215,0.0,0.0,0.0,0.0,0.0285226609558
1970/01/01/02:01:41.218000,384,0,0,world,8,1479,0.0,0.0,0.0,0.101185427186,-0.0528188013154,-0.000122930509278,0.0,0.0,0.0,0.0,0.0125350728631
1970/01/01/02:01:41.244000,385,0,0,world,8,1479,0.0,0.0,0.0,0.119341337575,-0.0778694962721,0.000118988668752,0.0,0.0,0.0,0.0,-0.00767722865567
1970/01/01/02:01:41.280000,386,0,0,world,8,1479,0.0,0.0,0.0,0.133723107227,-0.0653330381178,-7.18902599614e-06,0.0,0.0,0.0,0.0,-0.0128164729103
1970/01/01/02:01:41.311000,387,0,0,world,8,1479,0.0,0.0,0.0,0.134973465969,-0.0515134120157,0.00011243581411,0.0,0.0,0.0,0.0,-0.022237399593
1970/01/01/02:01:41.347000,388,0,0,world,8,1479,0.0,0.0,0.0,0.130930715706,-0.0859248615986,1.35344294609e-05,0.0,0.0,0.0,0.0,-0.0451092347503
1970/01/01/02:01:41.377000,389,0,0,world,8,1479,0.0,0.0,0.0,0.1535068557,0.0368757694395,0.00018466594417,0.0,0.0,0.0,0.0,-0.00904047116637
1970/01/01/02:01:41.410000,390,0,0,world,8,1479,0.0,0.0,0.0,0.146593091229,-0.0410053587317,-0.000551663450023,0.0,0.0,0.0,0.0,-0.0507411472499
1970/01/01/02:01:41.453000,391,0,0,world,8,1479,0.0,0.0,0.0,0.152901213387,-0.0436879857435,-0.000695059351483,0.0,0.0,0.0,0.0,-0.0556936189532
1970/01/01/02:01:41.481000,392,0,0,world,8,1479,0.0,0.0,0.0,0.146976672693,-0.0855319720586,-0.000834107935342,0.0,0.0,0.0,0.0,-0.0727432519197
1970/01/01/02:01:41.525000,393,0,0,world,8,1479,0.0,0.0,0.0,0.15377976431,-0.042634808693,-0.00129684625891,0.0,0.0,0.0,0.0,-0.0649734139442
1970/01/01/02:01:41.556000,394,0,0,world,8,1479,0.0,0.0,0.0,0.155028610322,-0.0460471287133,-0.0013183713701,0.0,0.0,0.0,0.0,-0.065545104444
1970/01/01/02:01:41.586000,395,0,0,world,8,1479,0.0,0.0,0.0,0.156614148207,-0.0414351496476,-0.00128897727776,0.0,0.0,0.0,0.0,-0.066118657589
1970/01/01/02:01:41.614000,396,0,0,world,8,1479,0.0,0.0,0.0,0.156357184966,-0.0438833115684,-0.00119976711495,0.0,0.0,0.0,0.0,-0.0654326304793
1970/01/01/02:01:41.652000,397,0,0,world,8,1479,0.0,0.0,0.0,0.156985970149,-0.0421921474007,-0.00124209044204,0.0,0.0,0.0,0.0,-0.0656097531319
1970/01/01/02:01:41.683000,398,0,0,world,8,1479,0.0,0.0,0.0,0.164697882016,-0.0599734472859,-0.00122623973077,0.0,0.0,0.0,0.0,-0.0726890712976
1970/01/01/02:01:41.718000,399,0,0,world,8,1479,0.0,0.0,0.0,0.190822948458,-0.0556187899306,-0.00132148891228,0.0,0.0,0.0,0.0,-0.0712665840983
1970/01/01/02:01:41.748000,400,0,0,world,8,1479,0.0,0.0,0.0,0.19517795967,-0.0599586917168,-0.00138071034467,0.0,0.0,0.0,0.0,-0.0749598741531
1970/01/01/02:01:41.784000,401,0,0,world,8,1479,0.0,0.0,0.0,0.197477574675,-0.0622655193048,-0.00137752461445,0.0,0.0,0.0,0.0,-0.0757598280907
1970/01/01/02:01:41.811000,402,0,0,world,8,1479,0.0,0.0,0.0,0.197775434351,-0.0629461265372,-0.00136811817618,0.0,0.0,0.0,0.0,-0.0757943242788
1970/01/01/02:01:41.849000,403,0,0,world,8,1479,0.0,0.0,0.0,0.18842744502,-0.074324627879,-0.00120746565329,0.0,0.0,0.0,0.0,-0.0758041292429
1970/01/01/02:01:41.882000,404,0,0,world,8,1479,0.0,0.0,0.0,0.181460166396,-0.0689619613418,-0.00118308400494,0.0,0.0,0.0,0.0,-0.0695695951581
1970/01/01/02:01:41.917000,405,0,0,world,8,1479,0.0,0.0,0.0,0.184024785978,-0.0338612962166,-0.00115049376265,0.0,0.0,0.0,0.0,-0.0556097142398
1970/01/01/02:01:41.946000,406,0,0,world,8,1479,0.0,0.0,0.0,0.174895886709,-0.0143593756153,-0.00117617528388,0.0,0.0,0.0,0.0,-0.0479947887361
1970/01/01/02:01:41.984000,407,0,0,world,8,1479,0.0,0.0,0.0,0.177909711168,-0.115862028351,-0.00195523585608,0.0,0.0,0.0,0.0,-0.0881112515926
1970/01/01/02:01:42.018000,408,0,0,world,8,1479,0.0,0.0,0.0,0.169559125269,-0.0804004699334,-0.00109742453096,0.0,0.0,0.0,0.0,-0.0738466754556
1970/01/01/02:01:42.052000,409,0,0,world,8,1479,0.0,0.0,0.0,0.191042343201,-0.0716761723678,-0.00155389359067,0.0,0.0,0.0,0.0,-0.0778119340539
1970/01/01/02:01:42.084000,410,0,0,world,8,1479,0.0,0.0,0.0,0.18674207442,-0.0425101791782,-0.000617582764837,0.0,0.0,0.0,0.0,-0.0665912926197
1970/01/01/02:01:42.117000,411,0,0,world,8,1479,0.0,0.0,0.0,0.187313037701,-0.0649136132079,-0.00135078020829,0.0,0.0,0.0,0.0,-0.0696800127625
1970/01/01/02:01:42.147000,412,0,0,world,8,1479,0.0,0.0,0.0,0.184969726114,0.00785159985978,-0.00143454090674,0.0,0.0,0.0,0.0,-0.0438402108848
1970/01/01/02:01:42.181000,413,0,0,world,8,1479,0.0,0.0,0.0,0.185756556792,-0.117267129254,-0.00126063185958,0.0,0.0,0.0,0.0,-0.0928668826818
1970/01/01/02:01:42.222000,414,0,0,world,8,1479,0.0,0.0,0.0,0.189762946936,-0.0672143792357,-0.00145028288425,0.0,0.0,0.0,0.0,-0.076493576169
1970/01/01/02:01:42.255000,415,0,0,world,8,1479,0.0,0.0,0.0,0.164497927951,-0.102369351212,-0.0015277532853,0.0,0.0,0.0,0.0,-0.0885321497917
1970/01/01/02:01:42.282000,416,0,0,world,8,1479,0.0,0.0,0.0,0.16903526922,-0.0331473331515,-0.00159538017119,0.0,0.0,0.0,0.0,-0.0619781240821
1970/01/01/02:01:42.311000,417,0,0,world,8,1479,0.0,0.0,0.0,0.165419040729,-0.0120425872331,-0.00241027359236,0.0,0.0,0.0,0.0,-0.0502506904304
1970/01/01/02:01:42.345000,418,0,0,world,8,1479,0.0,0.0,0.0,0.155872277049,-0.134297250606,-0.00203371705926,0.0,0.0,0.0,0.0,-0.0961869433522
1970/01/01/02:01:42.379000,419,0,0,world,8,1479,0.0,0.0,0.0,0.157292066714,-0.0195016757252,-0.000462110439663,0.0,0.0,0.0,0.0,-0.0486293174326
1970/01/01/02:01:42.412000,420,0,0,world,8,1479,0.0,0.0,0.0,0.168455736876,-0.0248667819469,-0.00179249407112,0.0,0.0,0.0,0.0,-0.0463516153395
1970/01/01/02:01:42.448000,421,0,0,world,8,1479,0.0,0.0,0.0,0.148026051519,-0.0658320461822,-0.00101355253155,0.0,0.0,0.0,0.0,-0.0620329938829
1970/01/01/02:01:42.478000,422,0,0,world,8,1479,0.0,0.0,0.0,0.141613708979,0.0150996926082,-0.000998601733854,0.0,0.0,0.0,0.0,-0.0302518084645
1970/01/01/02:01:42.515000,423,0,0,world,8,1479,0.0,0.0,0.0,0.136648131178,-0.0526411197228,-0.00150061462522,0.0,0.0,0.0,0.0,-0.0578426457942
1970/01/01/02:01:42.554000,424,0,0,world,8,1479,0.0,0.0,0.0,0.130607047968,-0.0195047480758,-0.000901681393011,0.0,0.0,0.0,0.0,-0.0448401980102
1970/01/01/02:01:42.582000,425,0,0,world,8,1479,0.0,0.0,0.0,0.127663439314,-0.0445578838158,-0.0013437648236,0.0,0.0,0.0,0.0,-0.0570012927055
1970/01/01/02:01:42.620000,426,0,0,world,8,1479,0.0,0.0,0.0,0.13230984888,-0.0418084845728,-0.00131912443849,0.0,0.0,0.0,0.0,-0.0561131946743
1970/01/01/02:01:42.652000,427,0,0,world,8,1479,0.0,0.0,0.0,0.113902824716,0.0095669069188,-0.000472280321117,0.0,0.0,0.0,0.0,-0.0322107262909
1970/01/01/02:01:42.680000,428,0,0,world,8,1479,0.0,0.0,0.0,0.114193997382,-0.0152945103418,-0.000643351857039,0.0,0.0,0.0,0.0,-0.0402072332799
1970/01/01/02:01:42.711000,429,0,0,world,8,1479,0.0,0.0,0.0,0.105772938719,-0.0200707488194,-0.000605985633745,0.0,0.0,0.0,0.0,-0.0409684851766
1970/01/01/02:01:42.746000,430,0,0,world,8,1479,0.0,0.0,0.0,0.0990203691723,0.0580457945166,-0.000231989328577,0.0,0.0,0.0,0.0,-0.0138577707112
1970/01/01/02:01:42.779000,431,0,0,world,8,1479,0.0,0.0,0.0,0.0983762336347,0.0619230098055,-0.000215383006059,0.0,0.0,0.0,0.0,-0.0135631635785
1970/01/01/02:01:42.821000,432,0,0,world,8,1479,0.0,0.0,0.0,0.0976554741997,0.0675478529641,-0.000205215732939,0.0,0.0,0.0,0.0,-0.0138017395511
1970/01/01/02:01:42.847000,433,0,0,world,8,1479,0.0,0.0,0.0,0.0896682930775,0.0243855685652,-0.000347665990659,0.0,0.0,0.0,0.0,-0.0372814461589
1970/01/01/02:01:42.882000,434,0,0,world,8,1479,0.0,0.0,0.0,0.0895318207276,0.0366023145062,-0.00050492523594,0.0,0.0,0.0,0.0,-0.040301118046
1970/01/01/02:01:42.912000,435,0,0,world,8,1479,0.0,0.0,0.0,0.0894818791473,0.103482727551,-0.000446276655899,0.0,0.0,0.0,0.0,-0.0198136754334
1970/01/01/02:01:42.953000,436,0,0,world,8,1479,0.0,0.0,0.0,0.088777498524,0.0879990761319,-0.000623153019246,0.0,0.0,0.0,0.0,-0.0288971830159
1970/01/01/02:01:42.982000,437,0,0,world,8,1479,0.0,0.0,0.0,0.0938830806798,0.133459385009,-0.000320589379965,0.0,0.0,0.0,0.0,-0.0125085478649
1970/01/01/02:01:43.018000,438,0,0,world,8,1479,0.0,0.0,0.0,0.0906495329345,0.0969566824267,-0.000745993576247,0.0,0.0,0.0,0.0,-0.029986416921
1970/01/01/02:01:43.050000,439,0,0,world,8,1479,0.0,0.0,0.0,0.0882941402735,0.0695844976194,-0.000878896323044,0.0,0.0,0.0,0.0,-0.0455059632659
1970/01/01/02:01:43.082000,440,0,0,world,8,1479,0.0,0.0,0.0,0.0899058112428,0.0725443915311,-0.00106358191836,0.0,0.0,0.0,0.0,-0.0485402457416
1970/01/01/02:01:43.114000,441,0,0,world,8,1479,0.0,0.0,0.0,0.096645789796,0.1788734979,-0.000828815218172,0.0,0.0,0.0,0.0,-0.00620652688667
1970/01/01/02:01:43.150000,442,0,0,world,8,1479,0.0,0.0,0.0,0.0976651711693,0.16134957022,-0.000731355100404,0.0,0.0,0.0,0.0,-0.00823647063226
1970/01/01/02:01:43.177000,443,0,0,world,8,1479,0.0,0.0,0.0,0.0928213827479,0.116306428298,-0.000752298184446,0.0,0.0,0.0,0.0,-0.0203189924359
1970/01/01/02:01:43.210000,444,0,0,world,8,1479,0.0,0.0,0.0,0.0868012222345,0.0946521800412,-0.000855183146017,0.0,0.0,0.0,0.0,-0.0310649815947
1970/01/01/02:01:43.244000,445,0,0,world,8,1479,0.0,0.0,0.0,0.0874764013454,0.0946156635258,-0.00107081316324,0.0,0.0,0.0,0.0,-0.0321950986981
1970/01/01/02:01:43.281000,446,0,0,world,8,1479,0.0,0.0,0.0,0.0866679754528,0.0887979277501,-0.00108492927517,0.0,0.0,0.0,0.0,-0.0319439694285
1970/01/01/02:01:43.312000,447,0,0,world,8,1479,0.0,0.0,0.0,0.0855106470634,0.106088317096,-0.000664970379368,0.0,0.0,0.0,0.0,-0.0192422773689
1970/01/01/02:01:43.348000,448,0,0,world,8,1479,0.0,0.0,0.0,0.0871926703373,0.0292761923946,-0.000654827722876,0.0,0.0,0.0,0.0,-0.0426171608269
1970/01/01/02:01:43.380000,449,0,0,world,8,1479,0.0,0.0,0.0,0.0869372911826,0.0428871512579,-0.000340508887204,0.0,0.0,0.0,0.0,-0.0302311573178
1970/01/01/02:01:43.414000,450,0,0,world,8,1479,0.0,0.0,0.0,0.0777839203411,0.0736769855628,-0.000210847759809,0.0,0.0,0.0,0.0,-0.00513570522889
1970/01/01/02:01:43.447000,451,0,0,world,8,1479,0.0,0.0,0.0,0.0777957261719,0.0855872092833,-8.0917601496e-05,0.0,0.0,0.0,0.0,0.0108866104856
1970/01/01/02:01:43.479000,452,0,0,world,8,1479,0.0,0.0,0.0,0.067353798341,-0.0346045494837,-9.77368184159e-05,0.0,0.0,0.0,0.0,-0.0276721790433
1970/01/01/02:01:43.515000,453,0,0,world,8,1479,0.0,0.0,0.0,0.0681260399383,-0.00550270960833,0.000145182047367,0.0,0.0,0.0,0.0,-0.00778524484485
1970/01/01/02:01:43.553000,454,0,0,world,8,1479,0.0,0.0,0.0,0.0633706664249,0.04487583399,-0.00014746835599,0.0,0.0,0.0,0.0,0.0157246440649
1970/01/01/02:01:43.594000,455,0,0,world,8,1479,0.0,0.0,0.0,0.066577207562,0.000656391816526,-8.57129068034e-05,0.0,0.0,0.0,0.0,0.00918962806463
1970/01/01/02:01:43.617000,456,0,0,world,8,1479,0.0,0.0,0.0,0.0717395666041,-0.0172508936177,-0.000329827361443,0.0,0.0,0.0,0.0,0.015768205747
1970/01/01/02:01:43.653000,457,0,0,world,8,1479,0.0,0.0,0.0,0.0715561538485,-0.0577104500919,-0.000126679357109,0.0,0.0,0.0,0.0,0.00807194504887
1970/01/01/02:01:43.683000,458,0,0,world,8,1479,0.0,0.0,0.0,0.0639935600192,-0.00119668841383,-0.00113353639587,0.0,0.0,0.0,0.0,0.0384791828692
1970/01/01/02:01:43.711000,459,0,0,world,8,1479,0.0,0.0,0.0,0.0702117896798,-0.0203292067912,-0.00104891022143,0.0,0.0,0.0,0.0,0.0410181134939
1970/01/01/02:01:43.758000,460,0,0,world,8,1479,0.0,0.0,0.0,0.068356166647,-0.038539367367,-0.00139105746351,0.0,0.0,0.0,0.0,0.0431984364986
1970/01/01/02:01:43.788000,461,0,0,world,8,1479,0.0,0.0,0.0,0.0703450149868,-0.131159063187,-0.00172437514427,0.0,0.0,0.0,0.0,0.0130532952026
1970/01/01/02:01:43.819000,462,0,0,world,8,1479,0.0,0.0,0.0,0.0605661253314,-0.154713841743,-0.00170838037161,0.0,0.0,0.0,0.0,0.00522937625647
1970/01/01/02:01:43.853000,463,0,0,world,8,1479,0.0,0.0,0.0,0.0641962772332,-0.162243280981,-0.00180905414288,0.0,0.0,0.0,0.0,0.00684350263327
1970/01/01/02:01:43.880000,464,0,0,world,8,1479,0.0,0.0,0.0,0.0798564593919,-0.0767206542865,-0.00202711284424,0.0,0.0,0.0,0.0,0.0484742261469
1970/01/01/02:01:43.910000,465,0,0,world,8,1479,0.0,0.0,0.0,0.0782326593853,-0.120344607298,-0.00189046537773,0.0,0.0,0.0,0.0,0.043269302696
1970/01/01/02:01:43.944000,466,0,0,world,8,1479,0.0,0.0,0.0,0.0659782030673,-0.127884490669,-0.00294047259352,0.0,0.0,0.0,0.0,0.0511530786753
1970/01/01/02:01:43.987000,467,0,0,world,8,1479,0.0,0.0,0.0,0.0704661840703,-0.229294215087,-0.003410411611,0.0,0.0,0.0,0.0,0.0199493095279
1970/01/01/02:01:44.015000,468,0,0,world,8,1479,0.0,0.0,0.0,0.0759510770739,-0.213337312685,-0.00376854760624,0.0,0.0,0.0,0.0,0.0319995135069
1970/01/01/02:01:44.050000,469,0,0,world,8,1479,0.0,0.0,0.0,0.0805098043474,-0.234297396661,-0.00386910746894,0.0,0.0,0.0,0.0,0.0281216707081
1970/01/01/02:01:44.082000,470,0,0,world,8,1479,0.0,0.0,0.0,0.0813822557779,-0.223806871954,-0.00403826249421,0.0,0.0,0.0,0.0,0.0367319248617
1970/01/01/02:01:44.117000,471,0,0,world,8,1479,0.0,0.0,0.0,0.0806724871638,-0.237641876355,-0.00438603743801,0.0,0.0,0.0,0.0,0.0395588167012
1970/01/01/02:01:44.144000,472,0,0,world,8,1479,0.0,0.0,0.0,0.0700954191677,-0.230935663784,-0.00543433496781,0.0,0.0,0.0,0.0,0.0528081171215
1970/01/01/02:01:44.185000,473,0,0,world,8,1479,0.0,0.0,0.0,0.0621851554988,-0.295328818993,-0.00472692642511,0.0,0.0,0.0,0.0,0.034416589886
1970/01/01/02:01:44.216000,474,0,0,world,8,1479,0.0,0.0,0.0,0.0665595666454,-0.323354455171,-0.00483833130717,0.0,0.0,0.0,0.0,0.0291587468237
1970/01/01/02:01:44.247000,475,0,0,world,8,1479,0.0,0.0,0.0,0.0680994888776,-0.281049887811,-0.00519895473553,0.0,0.0,0.0,0.0,0.0479948446155
1970/01/01/02:01:44.276000,476,0,0,world,8,1479,0.0,0.0,0.0,0.0693278648083,-0.28099304541,-0.00544718846471,0.0,0.0,0.0,0.0,0.0514333359897
1970/01/01/02:01:44.313000,477,0,0,world,8,1479,0.0,0.0,0.0,0.083067801047,-0.306534337027,-0.00570863577489,0.0,0.0,0.0,0.0,0.0503580346704
1970/01/01/02:01:44.346000,478,0,0,world,8,1479,0.0,0.0,0.0,0.0931756216608,-0.326313003092,-0.00538978707986,0.0,0.0,0.0,0.0,0.0477589815855
1970/01/01/02:01:44.385000,479,0,0,world,8,1479,0.0,0.0,0.0,0.0973166713419,-0.294585099986,-0.00575465542024,0.0,0.0,0.0,0.0,0.0603259317577
1970/01/01/02:01:44.410000,480,0,0,world,8,1479,0.0,0.0,0.0,0.100555296979,-0.293402643466,-0.00566170895695,0.0,0.0,0.0,0.0,0.0606871917844
1970/01/01/02:01:44.448000,481,0,0,world,8,1479,0.0,0.0,0.0,0.10098874918,-0.269591883786,-0.00623308788168,0.0,0.0,0.0,0.0,0.06854121387
1970/01/01/02:01:44.488000,482,0,0,world,8,1479,0.0,0.0,0.0,0.108772254977,-0.273635744451,-0.00562805480135,0.0,0.0,0.0,0.0,0.0623982958496
1970/01/01/02:01:44.516000,483,0,0,world,8,1479,0.0,0.0,0.0,0.109677822784,-0.270465556913,-0.00487650405567,0.0,0.0,0.0,0.0,0.0578256100416
1970/01/01/02:01:44.553000,484,0,0,world,8,1479,0.0,0.0,0.0,0.0947698495831,-0.26151636968,-0.00347967136533,0.0,0.0,0.0,0.0,0.048877377063
1970/01/01/02:01:44.586000,485,0,0,world,8,1479,0.0,0.0,0.0,0.106117329173,-0.333011112112,-0.00330966575367,0.0,0.0,0.0,0.0,0.0136262159795
1970/01/01/02:01:44.615000,486,0,0,world,8,1479,0.0,0.0,0.0,0.104431738231,-0.219426555922,-0.00241408601058,0.0,0.0,0.0,0.0,0.0486795678735
