time,.header.seq,.header.stamp.secs,.header.stamp.nsecs,.header.frame_id,.coordinate_frame,.type_mask,.position.x,.position.y,.position.z,.velocity.x,.velocity.y,.velocity.z,.acceleration_or_force.x,.acceleration_or_force.y,.acceleration_or_force.z,.yaw,.yaw_rate
1970/01/01/02:01:17.423000,4,0,0,world,8,1479,0.0,0.0,0.0,-0.0115263295248,0.279812875402,0.000111531584381,0.0,0.0,0.0,0.0,0.0583997666836
1970/01/01/02:01:17.481000,5,0,0,world,8,1479,0.0,0.0,0.0,-0.00971515285996,0.345252967609,0.000195655199894,0.0,0.0,0.0,0.0,0.0635485127568
1970/01/01/02:01:17.515000,6,0,0,world,8,1479,0.0,0.0,0.0,0.00317753806977,0.40926713091,0.000181809891263,0.0,0.0,0.0,0.0,0.0632520243526
1970/01/01/02:01:17.544000,7,0,0,world,8,1479,0.0,0.0,0.0,-0.0059835507803,0.311827327399,-6.34882734989e-05,0.0,0.0,0.0,0.0,-0.00374679500237
1970/01/01/02:01:17.568000,8,0,0,world,8,1479,0.0,0.0,0.0,-0.0089291392463,0.340784673498,-0.000362307701486,0.0,0.0,0.0,0.0,-0.0183397382498
1970/01/01/02:01:17.589000,9,0,0,world,8,1479,0.0,0.0,0.0,-0.00505437587183,0.502945713585,-0.000408560967293,0.0,0.0,0.0,0.0,0.0186833143234
1970/01/01/02:01:17.614000,10,0,0,world,8,1479,0.0,0.0,0.0,2.91703725367,-1.79266367194,-0.00140000884742,0.0,0.0,0.0,0.0,-0.667301952839
1970/01/01/02:01:17.663000,11,0,0,world,8,1479,0.0,0.0,0.0,2.85026733559,-1.81416524972,-0.00126532328033,0.0,0.0,0.0,0.0,-0.664541959763
1970/01/01/02:01:17.685000,12,0,0,world,8,1479,0.0,0.0,0.0,2.85043465361,-1.81424668293,-0.00126545652019,0.0,0.0,0.0,0.0,-0.664437711239
1970/01/01/02:01:17.712000,13,0,0,world,8,1479,0.0,0.0,0.0,2.82031489273,-1.92625081365,-0.00161948031118,0.0,0.0,0.0,0.0,-0.705921828747
1970/01/01/02:01:17.738000,14,0,0,world,8,1479,0.0,0.0,0.0,2.77162872963,-2.24411374138,-0.00267879294883,0.0,0.0,0.0,0.0,-0.829935133457
1970/01/01/02:01:17.771000,15,0,0,world,8,1479,0.0,0.0,0.0,2.70602240879,-2.84664711518,-0.00445501713046,0.0,0.0,0.0,0.0,-1.06713521481
1970/01/01/02:01:17.807000,16,0,0,world,8,1479,0.0,0.0,0.0,-0.00625746067854,0.585313921452,-0.00414546179275,0.0,0.0,0.0,0.0,0.057544503361
1970/01/01/02:01:17.835000,17,0,0,world,8,1479,0.0,0.0,0.0,-0.013417975311,0.545440890998,-0.00529606698363,0.0,0.0,0.0,0.0,0.067728869617
1970/01/01/02:01:17.872000,18,0,0,world,8,1479,0.0,0.0,0.0,-0.0252012907141,0.496298571281,-0.00520619392187,0.0,0.0,0.0,0.0,0.0814234018326
1970/01/01/02:01:17.908000,19,0,0,world,8,1479,0.0,0.0,0.0,-0.0262564394336,0.45641355196,-0.0050686233578,0.0,0.0,0.0,0.0,0.0895631089807
1970/01/01/02:01:17.937000,20,0,0,world,8,1479,0.0,0.0,0.0,-0.0126031395398,0.42387834541,-0.00541015493832,0.0,0.0,0.0,0.0,0.0920679345727
1970/01/01/02:01:17.974000,21,0,0,world,8,1479,0.0,0.0,0.0,-0.00414587790285,0.437942763127,-0.00607705686478,0.0,0.0,0.0,0.0,0.0987596362829
1970/01/01/02:01:18.005000,22,0,0,world,8,1479,0.0,0.0,0.0,-0.00402009378266,0.400916486195,-0.00597666800532,0.0,0.0,0.0,0.0,0.0804524570704
1970/01/01/02:01:18.035000,23,0,0,world,8,1479,0.0,0.0,0.0,0.00952931689676,0.423337275901,-0.00565690754584,0.0,0.0,0.0,0.0,0.0745885372162
1970/01/01/02:01:18.071000,24,0,0,world,8,1479,0.0,0.0,0.0,0.0322975818522,0.415562097456,-0.00347652859907,0.0,0.0,0.0,0.0,0.0567263513803
1970/01/01/02:01:18.104000,25,0,0,world,8,1479,0.0,0.0,0.0,0.0513794428459,0.432332294811,-0.000452936867177,0.0,0.0,0.0,0.0,0.0450299233198
1970/01/01/02:01:18.138000,26,0,0,world,8,1479,0.0,0.0,0.0,0.0650185528393,0.481611109999,0.0029834117265,0.0,0.0,0.0,0.0,0.0429496206343
1970/01/01/02:01:18.171000,27,0,0,world,8,1479,0.0,0.0,0.0,0.07156684196,0.505392873796,0.00565182476596,0.0,0.0,0.0,0.0,0.0409557744861
1970/01/01/02:01:18.206000,28,0,0,world,8,1479,0.0,0.0,0.0,0.0778993807297,0.552105438394,0.00763989234293,0.0,0.0,0.0,0.0,0.0517923012376
1970/01/01/02:01:18.244000,29,0,0,world,8,1479,0.0,0.0,0.0,0.0860584547836,0.586297418101,0.00960322157867,0.0,0.0,0.0,0.0,0.0625449493527
1970/01/01/02:01:18.271000,30,0,0,world,8,1479,0.0,0.0,0.0,0.0813523829326,0.60035712861,0.00920973567927,0.0,0.0,0.0,0.0,0.0636249110103
1970/01/01/02:01:18.305000,31,0,0,world,8,1479,0.0,0.0,0.0,0.0719125950711,0.605323357289,0.0102682776051,0.0,0.0,0.0,0.0,0.0589794963598
1970/01/01/02:01:18.336000,32,0,0,world,8,1479,0.0,0.0,0.0,0.0641127656871,0.613692016553,0.0113227474494,0.0,0.0,0.0,0.0,0.0537356585264
1970/01/01/02:01:18.370000,33,0,0,world,8,1479,0.0,0.0,0.0,0.0564003492673,0.619872011751,0.0120633397646,0.0,0.0,0.0,0.0,0.0493576861918
1970/01/01/02:01:18.410000,34,0,0,world,8,1479,0.0,0.0,0.0,0.0434921883025,0.573841454442,0.0138276868147,0.0,0.0,0.0,0.0,0.0265490245074
1970/01/01/02:01:18.455000,35,0,0,world,8,1479,0.0,0.0,0.0,0.0418657294353,0.580689219389,0.0135337709039,0.0,0.0,0.0,0.0,0.0257538259029
1970/01/01/02:01:18.468000,36,0,0,world,8,1479,0.0,0.0,0.0,0.0263898274249,0.521455166734,0.0130206980508,0.0,0.0,0.0,0.0,8.60348227434e-05
1970/01/01/02:01:18.508000,37,0,0,world,8,1479,0.0,0.0,0.0,0.0259616222481,0.545316697662,0.01219680243,0.0,0.0,0.0,0.0,0.0145118990913
1970/01/01/02:01:18.538000,38,0,0,world,8,1479,0.0,0.0,0.0,0.0212571935702,0.523663636834,0.00890533266518,0.0,0.0,0.0,0.0,0.017351899296
1970/01/01/02:01:18.577000,39,0,0,world,8,1479,0.0,0.0,0.0,0.0273358268435,0.426043475955,0.00957390815043,0.0,0.0,0.0,0.0,-0.00594751164317
1970/01/01/02:01:18.607000,40,0,0,world,8,1479,0.0,0.0,0.0,0.0410105150914,0.490461924642,0.00741395730572,0.0,0.0,0.0,0.0,0.0318041592836
1970/01/01/02:01:18.639000,41,0,0,world,8,1479,0.0,0.0,0.0,0.0341538408618,0.447527808082,0.00587091230314,0.0,0.0,0.0,0.0,0.0293625425547
1970/01/01/02:01:18.670000,42,0,0,world,8,1479,0.0,0.0,0.0,0.0431782170743,0.416582128165,0.00422782838782,0.0,0.0,0.0,0.0,0.0368367731571
1970/01/01/02:01:18.700000,43,0,0,world,8,1479,0.0,0.0,0.0,0.0341069892502,0.343587344038,0.00350596541824,0.0,0.0,0.0,0.0,0.0259256642312
1970/01/01/02:01:18.737000,44,0,0,world,8,1479,0.0,0.0,0.0,0.0584670176911,0.394466319963,0.00205627722082,0.0,0.0,0.0,0.0,0.0545799583197
1970/01/01/02:01:18.771000,45,0,0,world,8,1479,0.0,0.0,0.0,0.0470728472954,0.29056590435,0.00092004657618,0.0,0.0,0.0,0.0,0.0374406799674
1970/01/01/02:01:18.807000,46,0,0,world,8,1479,0.0,0.0,0.0,0.0713844990466,0.313601112744,0.000379631954761,0.0,0.0,0.0,0.0,0.0631120875478
1970/01/01/02:01:18.842000,47,0,0,world,8,1479,0.0,0.0,0.0,0.106197394995,0.251641053192,0.000110065781006,0.0,0.0,0.0,0.0,0.0493495352566
1970/01/01/02:01:18.875000,48,0,0,world,8,1479,0.0,0.0,0.0,0.0800876797635,0.188223756506,0.000207309830751,0.0,0.0,0.0,0.0,0.0484413467348
1970/01/01/02:01:18.904000,49,0,0,world,8,1479,0.0,0.0,0.0,0.0804584192182,0.171170367497,0.000543840130979,0.0,0.0,0.0,0.0,0.0577139295638
1970/01/01/02:01:18.936000,50,0,0,world,8,1479,0.0,0.0,0.0,0.114923156923,0.134606907215,0.00112863156843,0.0,0.0,0.0,0.0,0.0530368126929
1970/01/01/02:01:18.969000,51,0,0,world,8,1479,0.0,0.0,0.0,0.146503251629,0.105058460188,0.00195104942817,0.0,0.0,0.0,0.0,0.0529021844268
1970/01/01/02:01:19.004000,52,0,0,world,8,1479,0.0,0.0,0.0,0.13577060898,-0.0164997344307,0.00349745756813,0.0,0.0,0.0,0.0,0.0293748844415
1970/01/01/02:01:19.050000,53,0,0,world,8,1479,0.0,0.0,0.0,0.130709459424,-0.0278735249252,0.00698455954826,0.0,0.0,0.0,0.0,0.0618629790843
1970/01/01/02:01:19.075000,54,0,0,world,8,1479,0.0,0.0,0.0,0.169033670124,-0.0618161016811,0.0069276019678,0.0,0.0,0.0,0.0,0.041758287698
1970/01/01/02:01:19.112000,55,0,0,world,8,1479,0.0,0.0,0.0,0.20000732878,-0.133992908684,0.00982809473369,0.0,0.0,0.0,0.0,0.0315055847168
1970/01/01/02:01:19.142000,56,0,0,world,8,1479,0.0,0.0,0.0,0.192281200065,-0.145959498518,0.015222937998,0.0,0.0,0.0,0.0,0.062566421926
1970/01/01/02:01:19.176000,57,0,0,world,8,1479,0.0,0.0,0.0,0.272485910237,-0.1383517996,0.0189981615248,0.0,0.0,0.0,0.0,0.0606904551387
1970/01/01/02:01:19.219000,58,0,0,world,8,1479,0.0,0.0,0.0,0.298044797823,-0.18914599409,0.0248791161474,0.0,0.0,0.0,0.0,0.0556204356253
1970/01/01/02:01:19.242000,59,0,0,world,8,1479,0.0,0.0,0.0,0.307502276278,-0.249670132511,0.0252701012487,0.0,0.0,0.0,0.0,0.0413748323917
1970/01/01/02:01:19.277000,60,0,0,world,8,1479,0.0,0.0,0.0,0.331704209529,-0.283810583321,0.0283232689624,0.0,0.0,0.0,0.0,0.0340943075716
1970/01/01/02:01:19.312000,61,0,0,world,8,1479,0.0,0.0,0.0,0.291790956727,-0.264516934725,0.0286334795071,0.0,0.0,0.0,0.0,0.0544477328658
1970/01/01/02:01:19.347000,62,0,0,world,8,1479,0.0,0.0,0.0,0.346936341743,-0.233234596804,0.0336999230768,0.0,0.0,0.0,0.0,0.0613187104464
1970/01/01/02:01:19.371000,63,0,0,world,8,1479,0.0,0.0,0.0,0.347293669129,-0.375212661489,0.0318953754702,0.0,0.0,0.0,0.0,0.0214114189148
1970/01/01/02:01:19.413000,64,0,0,world,8,1479,0.0,0.0,0.0,0.382705632585,-0.348318267006,0.0320641729197,0.0,0.0,0.0,0.0,0.0259006172419
1970/01/01/02:01:19.504000,65,0,0,world,8,1479,0.0,0.0,0.0,0.296059242968,-0.252634955195,0.0356567894747,0.0,0.0,0.0,0.0,0.0696239471436
1970/01/01/02:01:19.542000,66,0,0,world,8,1479,0.0,0.0,0.0,0.276723950554,-0.271013226354,0.0318350002963,0.0,0.0,0.0,0.0,0.0666051134467
1970/01/01/02:01:19.573000,67,0,0,world,8,1479,0.0,0.0,0.0,0.244383933581,-0.166713595154,0.0330615337371,0.0,0.0,0.0,0.0,0.0998975560069
1970/01/01/02:01:19.606000,68,0,0,world,8,1479,0.0,0.0,0.0,0.224399018901,-0.143099125755,0.0269784671872,0.0,0.0,0.0,0.0,0.101959183812
1970/01/01/02:01:19.637000,69,0,0,world,8,1479,0.0,0.0,0.0,0.12245521423,-0.0364197186435,0.0224532528384,0.0,0.0,0.0,0.0,0.133604183793
1970/01/01/02:01:19.673000,70,0,0,world,8,1479,0.0,0.0,0.0,0.0686813181346,0.08731673333,0.0172460156065,0.0,0.0,0.0,0.0,0.164540946484
1970/01/01/02:01:19.704000,71,0,0,world,8,1479,0.0,0.0,0.0,0.0435910552947,0.154989686095,0.0116974183468,0.0,0.0,0.0,0.0,0.167510926723
1970/01/01/02:01:19.741000,72,0,0,world,8,1479,0.0,0.0,0.0,0.0454674282776,0.139223195074,0.00548380771024,0.0,0.0,0.0,0.0,0.131350308657
1970/01/01/02:01:19.775000,73,0,0,world,8,1479,0.0,0.0,0.0,0.0815169004495,0.189157219026,0.00233898571968,0.0,0.0,0.0,0.0,0.111602678895
1970/01/01/02:01:19.810000,74,0,0,world,8,1479,0.0,0.0,0.0,0.0663055952187,0.243418625273,0.000261213035224,0.0,0.0,0.0,0.0,0.101061627269
1970/01/01/02:01:19.838000,75,0,0,world,8,1479,0.0,0.0,0.0,0.0986153602085,0.169211346487,0.00104520457351,0.0,0.0,0.0,0.0,0.0247518420219
1970/01/01/02:01:19.872000,76,0,0,world,8,1479,0.0,0.0,0.0,0.0987569990071,0.210079418962,0.00242638049559,0.0,0.0,0.0,0.0,0.00480292830616
1970/01/01/02:01:19.906000,77,0,0,world,8,1479,0.0,0.0,0.0,0.0845191092174,0.277427867689,0.00588833701434,0.0,0.0,0.0,0.0,-0.0126039758325
1970/01/01/02:01:19.953000,78,0,0,world,8,1479,0.0,0.0,0.0,0.0364176638993,0.290190776105,0.00829625652419,0.0,0.0,0.0,0.0,-0.0250571295619
1970/01/01/02:01:19.978000,79,0,0,world,8,1479,0.0,0.0,0.0,0.0358787659226,0.311882175005,0.010137501613,0.0,0.0,0.0,0.0,-0.0394492223859
1970/01/01/02:01:20.013000,80,0,0,world,8,1479,0.0,0.0,0.0,0.0460720220021,0.435862286887,0.0124413657738,0.0,0.0,0.0,0.0,-0.011453891173
1970/01/01/02:01:20.043000,81,0,0,world,8,1479,0.0,0.0,0.0,0.0305733740531,0.462301725413,0.0140062027146,0.0,0.0,0.0,0.0,-0.00670864526182
1970/01/01/02:01:20.084000,82,0,0,world,8,1479,0.0,0.0,0.0,0.0259102895925,0.510457472832,0.0132238700266,0.0,0.0,0.0,0.0,0.00797232147306
1970/01/01/02:01:20.115000,83,0,0,world,8,1479,0.0,0.0,0.0,7.69787431166e-05,0.472076924338,0.0137475024246,0.0,0.0,0.0,0.0,-0.0116578871384
1970/01/01/02:01:20.142000,84,0,0,world,8,1479,0.0,0.0,0.0,0.00747106291115,0.520790081941,0.0153357535158,0.0,0.0,0.0,0.0,-0.00792177487165
1970/01/01/02:01:20.176000,85,0,0,world,8,1479,0.0,0.0,0.0,0.0140548135299,0.526321542187,0.0226185487812,0.0,0.0,0.0,0.0,-0.031628716737
1970/01/01/02:01:20.207000,86,0,0,world,8,1479,0.0,0.0,0.0,0.0151017133606,0.595430711004,0.0205067976192,0.0,0.0,0.0,0.0,-0.0115701938048
1970/01/01/02:01:20.236000,87,0,0,world,8,1479,0.0,0.0,0.0,0.0120453765631,0.609186815845,0.0213961901568,0.0,0.0,0.0,0.0,-0.0134548982605
1970/01/01/02:01:20.270000,88,0,0,world,8,1479,0.0,0.0,0.0,0.0059595852857,0.608045276749,0.0221996453859,0.0,0.0,0.0,0.0,-0.0176766496152
1970/01/01/02:01:20.307000,89,0,0,world,8,1479,0.0,0.0,0.0,-0.00392205691388,0.587279931842,0.0222152185662,0.0,0.0,0.0,0.0,-0.0289719440043
1970/01/01/02:01:20.334000,90,0,0,world,8,1479,0.0,0.0,0.0,-0.0280252097824,0.515837726878,0.0225988835289,0.0,0.0,0.0,0.0,-0.0590070597827
1970/01/01/02:01:20.375000,91,0,0,world,8,1479,0.0,0.0,0.0,-0.0304620989935,0.509951909429,0.0222988514371,0.0,0.0,0.0,0.0,-0.0607290491462
1970/01/01/02:01:20.405000,92,0,0,world,8,1479,0.0,0.0,0.0,-0.0306229402514,0.49826767687,0.0215514414335,0.0,0.0,0.0,0.0,-0.0580951496959
1970/01/01/02:01:20.445000,93,0,0,world,8,1479,0.0,0.0,0.0,-0.0127171686746,0.518830342291,0.0196413297617,0.0,0.0,0.0,0.0,-0.0350548960268
1970/01/01/02:01:20.472000,94,0,0,world,8,1479,0.0,0.0,0.0,-0.00299663139612,0.54843104432,0.0187516214894,0.0,0.0,0.0,0.0,-0.00864561740309
1970/01/01/02:01:20.505000,95,0,0,world,8,1479,0.0,0.0,0.0,-0.00921869770049,0.461308985768,0.015614926892,0.0,0.0,0.0,0.0,-0.0213261824101
1970/01/01/02:01:20.539000,96,0,0,world,8,1479,0.0,0.0,0.0,0.00265048698315,0.488668553929,0.014808493202,0.0,0.0,0.0,0.0,0.00570779154077
1970/01/01/02:01:20.570000,97,0,0,world,8,1479,0.0,0.0,0.0,0.000707177634709,0.453106902248,0.0130829798932,0.0,0.0,0.0,0.0,0.00420912215486
1970/01/01/02:01:20.602000,98,0,0,world,8,1479,0.0,0.0,0.0,-0.00746615513208,0.367541138689,0.0109664074511,0.0,0.0,0.0,0.0,-0.0145985055715
1970/01/01/02:01:20.642000,99,0,0,world,8,1479,0.0,0.0,0.0,0.0143794093348,0.402649816935,0.00978854352009,0.0,0.0,0.0,0.0,0.00410372344777
1970/01/01/02:01:20.674000,100,0,0,world,8,1479,0.0,0.0,0.0,0.00747734860674,0.364815498268,0.00791621189139,0.0,0.0,0.0,0.0,0.00629084417596
1970/01/01/02:01:20.709000,101,0,0,world,8,1479,0.0,0.0,0.0,0.0207199010663,0.342579595324,0.00599398595477,0.0,0.0,0.0,0.0,0.0170691777021
1970/01/01/02:01:20.740000,102,0,0,world,8,1479,0.0,0.0,0.0,0.0206921255944,0.317460009415,0.00441891027812,0.0,0.0,0.0,0.0,0.0255658105016
1970/01/01/02:01:20.775000,103,0,0,world,8,1479,0.0,0.0,0.0,0.0438636172559,0.287614699446,0.00322792427683,0.0,0.0,0.0,0.0,0.0222606435418
1970/01/01/02:01:20.816000,104,0,0,world,8,1479,0.0,0.0,0.0,0.039539594388,0.160531064948,0.00166394854914,0.0,0.0,0.0,0.0,-0.00874310266227
1970/01/01/02:01:20.846000,105,0,0,world,8,1479,0.0,0.0,0.0,0.0594436077046,0.272130619957,0.000492819426993,0.0,0.0,0.0,0.0,0.0456466190517
1970/01/01/02:01:20.872000,106,0,0,world,8,1479,0.0,0.0,0.0,0.0368423373429,0.166818397436,0.00052809583812,0.0,0.0,0.0,0.0,0.0247813314199
1970/01/01/02:01:20.908000,107,0,0,world,8,1479,0.0,0.0,0.0,0.07004863164,0.114910639019,0.000724385574314,0.0,0.0,0.0,0.0,0.0111932717264
1970/01/01/02:01:20.947000,108,0,0,world,8,1479,0.0,0.0,0.0,0.0804439951061,0.133513660257,0.000111119957737,0.0,0.0,0.0,0.0,0.0233221240342
1970/01/01/02:01:20.973000,109,0,0,world,8,1479,0.0,0.0,0.0,0.0882089532983,0.0105906577707,-0.000202777360793,0.0,0.0,0.0,0.0,-0.00837552919984
1970/01/01/02:01:21.003000,110,0,0,world,8,1479,0.0,0.0,0.0,0.0590556528397,0.0633793542771,-2.80604251636e-05,0.0,0.0,0.0,0.0,0.0352542735636
1970/01/01/02:01:21.038000,111,0,0,world,8,1479,0.0,0.0,0.0,0.0927365000469,0.0827710261508,0.000333692446525,0.0,0.0,0.0,0.0,0.0501562878489
1970/01/01/02:01:21.071000,112,0,0,world,8,1479,0.0,0.0,0.0,0.15750020022,-0.00523447971305,0.000943384900618,0.0,0.0,0.0,0.0,0.0221869461238
1970/01/01/02:01:21.106000,113,0,0,world,8,1479,0.0,0.0,0.0,0.154833054448,-0.101667764078,0.0016019325779,0.0,0.0,0.0,0.0,0.00391019787639
1970/01/01/02:01:21.140000,114,0,0,world,8,1479,0.0,0.0,0.0,0.104004381871,-0.0507264241431,0.00188007417594,0.0,0.0,0.0,0.0,0.0389847867191
1970/01/01/02:01:21.175000,115,0,0,world,8,1479,0.0,0.0,0.0,0.12090459065,-0.0646770174924,0.00276014221485,0.0,0.0,0.0,0.0,0.0385017991066
1970/01/01/02:01:21.213000,116,0,0,world,8,1479,0.0,0.0,0.0,0.160671551679,-0.087826177002,0.00370928453495,0.0,0.0,0.0,0.0,0.0371178351343
1970/01/01/02:01:21.246000,117,0,0,world,8,1479,0.0,0.0,0.0,0.184357917451,-0.133379628874,0.00481510480947,0.0,0.0,0.0,0.0,0.0279252734035
1970/01/01/02:01:21.277000,118,0,0,world,8,1479,0.0,0.0,0.0,0.17093107379,-0.123338774158,0.00559843733839,0.0,0.0,0.0,0.0,0.0423906706274
1970/01/01/02:01:21.312000,119,0,0,world,8,1479,0.0,0.0,0.0,0.141290347236,-0.116085818441,0.00640181023512,0.0,0.0,0.0,0.0,0.05441211164
1970/01/01/02:01:21.342000,120,0,0,world,8,1479,0.0,0.0,0.0,0.138024878473,-0.176078030398,0.0062049094207,0.0,0.0,0.0,0.0,0.0390604957938
1970/01/01/02:01:21.372000,121,0,0,world,8,1479,0.0,0.0,0.0,0.145428848127,-0.126681679586,0.00783492024738,0.0,0.0,0.0,0.0,0.0578910857439
1970/01/01/02:01:21.412000,122,0,0,world,8,1479,0.0,0.0,0.0,0.138926640147,-0.119587589733,0.00822416407281,0.0,0.0,0.0,0.0,0.059829223901
1970/01/01/02:01:21.450000,123,0,0,world,8,1479,0.0,0.0,0.0,0.178426678941,-0.183773211726,0.00729131656974,0.0,0.0,0.0,0.0,0.0314149707556
1970/01/01/02:01:21.475000,124,0,0,world,8,1479,0.0,0.0,0.0,0.156712329711,-0.114099622297,0.00818786737371,0.0,0.0,0.0,0.0,0.0524342283607
1970/01/01/02:01:21.499000,125,0,0,world,8,1479,0.0,0.0,0.0,0.0793592941271,0.0492231117757,0.00687221371074,0.0,0.0,0.0,0.0,0.110594600439
1970/01/01/02:01:21.533000,126,0,0,world,8,1479,0.0,0.0,0.0,0.0729969705537,0.108526853593,0.00719075914276,0.0,0.0,0.0,0.0,0.124443382025
1970/01/01/02:01:21.570000,127,0,0,world,8,1479,0.0,0.0,0.0,0.0760658246778,0.106028180266,0.0062770651539,0.0,0.0,0.0,0.0,0.113264337182
1970/01/01/02:01:21.600000,128,0,0,world,8,1479,0.0,0.0,0.0,0.104278819683,0.00437378388912,0.00303858146608,0.0,0.0,0.0,0.0,0.059104628861
1970/01/01/02:01:21.635000,129,0,0,world,8,1479,0.0,0.0,0.0,0.0409631981604,0.170678362554,0.00266016440435,0.0,0.0,0.0,0.0,0.103519327939
1970/01/01/02:01:21.668000,130,0,0,world,8,1479,0.0,0.0,0.0,0.0478293354449,0.173130503725,0.00111511516629,0.0,0.0,0.0,0.0,0.0759740695357
1970/01/01/02:01:21.706000,131,0,0,world,8,1479,0.0,0.0,0.0,0.0929083624414,0.224088307985,-0.000115576467566,0.0,0.0,0.0,0.0,0.0635552108288
1970/01/01/02:01:21.734000,132,0,0,world,8,1479,0.0,0.0,0.0,0.0411641500054,0.172256372149,-7.41422182101e-05,0.0,0.0,0.0,0.0,0.034034896642
1970/01/01/02:01:21.767000,133,0,0,world,8,1479,0.0,0.0,0.0,0.0438172484477,0.251557686041,0.000215339226798,0.0,0.0,0.0,0.0,0.0374034456909
1970/01/01/02:01:21.798000,134,0,0,world,8,1479,0.0,0.0,0.0,0.0842118646119,0.284152058714,0.000887216882905,0.0,0.0,0.0,0.0,0.0164808109403
1970/01/01/02:01:21.843000,135,0,0,world,8,1479,0.0,0.0,0.0,0.0147417616484,0.19365464627,0.00241741545141,0.0,0.0,0.0,0.0,-0.0237905140966
1970/01/01/02:01:21.873000,136,0,0,world,8,1479,0.0,0.0,0.0,0.00779976770864,0.258526761305,0.00322741527835,0.0,0.0,0.0,0.0,-0.0159863121808
1970/01/01/02:01:21.914000,137,0,0,world,8,1479,0.0,0.0,0.0,0.0347761138593,0.351155932887,0.00460493411717,0.0,0.0,0.0,0.0,-0.00418971804902
1970/01/01/02:01:21.940000,138,0,0,world,8,1479,0.0,0.0,0.0,0.0350459228932,0.396442667851,0.00456850602091,0.0,0.0,0.0,0.0,0.00403046840802
1970/01/01/02:01:21.974000,139,0,0,world,8,1479,0.0,0.0,0.0,0.0222621634654,0.397196570795,0.00608092622544,0.0,0.0,0.0,0.0,-0.000456434994703
1970/01/01/02:01:22.008000,140,0,0,world,8,1479,0.0,0.0,0.0,0.0412501944581,0.457789403081,0.00606132222671,0.0,0.0,0.0,0.0,0.0203163512051
1970/01/01/02:01:22.040000,141,0,0,world,8,1479,0.0,0.0,0.0,0.0387159800023,0.40390259624,0.00755092477239,0.0,0.0,0.0,0.0,-0.00886097364128
1970/01/01/02:01:22.071000,142,0,0,world,8,1479,0.0,0.0,0.0,0.0418359137188,0.447548245094,0.00766234054565,0.0,0.0,0.0,0.0,-0.00239482568577
1970/01/01/02:01:22.101000,143,0,0,world,8,1479,0.0,0.0,0.0,0.00551237205514,0.342844176943,0.00933881488888,0.0,0.0,0.0,0.0,-0.0487574413419
1970/01/01/02:01:22.137000,144,0,0,world,8,1479,0.0,0.0,0.0,0.0108496173144,0.413803469506,0.00970811025952,0.0,0.0,0.0,0.0,-0.0291647966951
1970/01/01/02:01:22.171000,145,0,0,world,8,1479,0.0,0.0,0.0,0.00959629618369,0.491386324066,0.00935468715474,0.0,0.0,0.0,0.0,-0.00407632719725
1970/01/01/02:01:22.212000,146,0,0,world,8,1479,0.0,0.0,0.0,0.00901194589956,0.436411132042,0.00979525927731,0.0,0.0,0.0,0.0,-0.0205875057727
1970/01/01/02:01:22.239000,147,0,0,world,8,1479,0.0,0.0,0.0,-0.00148634952208,0.430690955249,0.00908790546876,0.0,0.0,0.0,0.0,-0.0171497967094
1970/01/01/02:01:22.271000,148,0,0,world,8,1479,0.0,0.0,0.0,0.00131591778168,0.414131901158,0.00868694453478,0.0,0.0,0.0,0.0,-0.0217612404376
1970/01/01/02:01:22.307000,149,0,0,world,8,1479,0.0,0.0,0.0,-0.00628817226336,0.381471185833,0.00835326200595,0.0,0.0,0.0,0.0,-0.0306520201266
1970/01/01/02:01:22.335000,150,0,0,world,8,1479,0.0,0.0,0.0,0.009435896394,0.415231973133,0.00877204313219,0.0,0.0,0.0,0.0,-0.0162576977164
1970/01/01/02:01:22.367000,151,0,0,world,8,1479,0.0,0.0,0.0,0.0103054618682,0.407843162001,0.00799649937889,0.0,0.0,0.0,0.0,-0.0109344068915
1970/01/01/02:01:22.403000,152,0,0,world,8,1479,0.0,0.0,0.0,0.0256271882054,0.451749144989,0.0060837606564,0.0,0.0,0.0,0.0,0.0185978692025
1970/01/01/02:01:22.439000,153,0,0,world,8,1479,0.0,0.0,0.0,0.0142603808226,0.375416659781,0.00589508960639,0.0,0.0,0.0,0.0,0.00168284471147
1970/01/01/02:01:22.467000,154,0,0,world,8,1479,0.0,0.0,0.0,0.0194894746891,0.40797104821,0.00435972989908,0.0,0.0,0.0,0.0,0.0228923354298
1970/01/01/02:01:22.507000,155,0,0,world,8,1479,0.0,0.0,0.0,0.0118792305681,0.352351942115,0.00440528274432,0.0,0.0,0.0,0.0,0.00860172603279
1970/01/01/02:01:22.538000,156,0,0,world,8,1479,0.0,0.0,0.0,0.0168119413,0.411390012938,0.00327222845685,0.0,0.0,0.0,0.0,0.0326121151447
1970/01/01/02:01:22.571000,157,0,0,world,8,1479,0.0,0.0,0.0,0.0491518636321,0.391082948324,0.00349067825271,0.0,0.0,0.0,0.0,0.0226641371846
1970/01/01/02:01:22.604000,158,0,0,world,8,1479,0.0,0.0,0.0,0.0365376194613,0.358655227241,0.00274738879268,0.0,0.0,0.0,0.0,0.0200878661126
1970/01/01/02:01:22.637000,159,0,0,world,8,1479,0.0,0.0,0.0,0.0550653641654,0.325586095163,0.00211321814282,0.0,0.0,0.0,0.0,0.0149252396077
1970/01/01/02:01:22.675000,160,0,0,world,8,1479,0.0,0.0,0.0,0.0537859951871,0.360933990676,0.00127933183263,0.0,0.0,0.0,0.0,0.0417964980006
1970/01/01/02:01:22.706000,161,0,0,world,8,1479,0.0,0.0,0.0,0.0494399673259,0.304578386396,0.00110628600815,0.0,0.0,0.0,0.0,0.018890645355
1970/01/01/02:01:22.737000,162,0,0,world,8,1479,0.0,0.0,0.0,0.0515167397983,0.286372637301,0.000576674590807,0.0,0.0,0.0,0.0,0.0242745913565
1970/01/01/02:01:22.768000,163,0,0,world,8,1479,0.0,0.0,0.0,0.0363965072466,0.243477973474,0.000144657457625,0.0,0.0,0.0,0.0,0.0211605522782
1970/01/01/02:01:22.810000,164,0,0,world,8,1479,0.0,0.0,0.0,0.012397810571,0.208700406395,-0.000256370588594,0.0,0.0,0.0,0.0,0.0274325143546
1970/01/01/02:01:22.842000,165,0,0,world,8,1479,0.0,0.0,0.0,0.0987489182459,0.232470909401,-0.00025208930535,0.0,0.0,0.0,0.0,0.0366470143199
1970/01/01/02:01:22.869000,166,0,0,world,8,1479,0.0,0.0,0.0,0.105271874922,0.229073960085,-0.000271308918784,0.0,0.0,0.0,0.0,0.0354426726699
1970/01/01/02:01:22.905000,167,0,0,world,8,1479,0.0,0.0,0.0,0.0817446010029,0.167053886175,-0.00035591955459,0.0,0.0,0.0,0.0,0.0295765064657
1970/01/01/02:01:22.939000,168,0,0,world,8,1479,0.0,0.0,0.0,0.0938616016352,0.100401627801,8.02700975987e-05,0.0,0.0,0.0,0.0,0.0308707952499
1970/01/01/02:01:22.966000,169,0,0,world,8,1479,0.0,0.0,0.0,0.0982028195082,0.112011576959,7.13481390467e-05,0.0,0.0,0.0,0.0,0.0379087403417
1970/01/01/02:01:23.009000,170,0,0,world,8,1479,0.0,0.0,0.0,0.108998330569,-0.0138013888232,0.000776418865317,0.0,0.0,0.0,0.0,0.0106219109148
1970/01/01/02:01:23.042000,171,0,0,world,8,1479,0.0,0.0,0.0,0.103117500069,-0.0118477907309,0.00130754913507,0.0,0.0,0.0,0.0,0.0274929516017
1970/01/01/02:01:23.072000,172,0,0,world,8,1479,0.0,0.0,0.0,0.185189840017,-0.021110649168,0.00126709303424,0.0,0.0,0.0,0.0,0.0219143163413
1970/01/01/02:01:23.106000,173,0,0,world,8,1479,0.0,0.0,0.0,0.202682863167,-0.0683726115642,0.00294867783383,0.0,0.0,0.0,0.0,0.0319042056799
1970/01/01/02:01:23.139000,174,0,0,world,8,1479,0.0,0.0,0.0,0.196292042034,-0.272485785488,0.00389111527086,0.0,0.0,0.0,0.0,-0.0205793362111
1970/01/01/02:01:23.169000,175,0,0,world,8,1479,0.0,0.0,0.0,0.247155362122,-0.241100569657,0.00616486012754,0.0,0.0,0.0,0.0,0.00633192434907
1970/01/01/02:01:23.206000,176,0,0,world,8,1479,0.0,0.0,0.0,6.82982399827,-36.1273938075,0.00258705493064,0.0,0.0,0.0,0.0,-12.3771209717
1970/01/01/02:01:23.241000,177,0,0,world,8,1479,0.0,0.0,0.0,0.304725510795,-0.358078737375,0.0103349489342,0.0,0.0,0.0,0.0,0.0126709975302
1970/01/01/02:01:23.274000,178,0,0,world,8,1479,0.0,0.0,0.0,0.856723111949,-0.485134630961,0.013527089752,0.0,0.0,0.0,0.0,-0.0315655209124
1970/01/01/02:01:23.305000,179,0,0,world,8,1479,0.0,0.0,0.0,0.854473849978,-0.496123329586,0.0173519442532,0.0,0.0,0.0,0.0,-0.0203108582646
1970/01/01/02:01:23.342000,180,0,0,world,8,1479,0.0,0.0,0.0,8.56932402474,-36.5983570635,0.0160001660445,0.0,0.0,0.0,0.0,-12.2378473282
1970/01/01/02:01:23.375000,181,0,0,world,8,1479,0.0,0.0,0.0,0.631589611333,-0.612371904116,0.0283538649632,0.0,0.0,0.0,0.0,-0.0514119826257
1970/01/01/02:01:23.409000,182,0,0,world,8,1479,0.0,0.0,0.0,9.06078759807,-38.1755662332,0.0260286502552,0.0,0.0,0.0,0.0,-12.393866539
1970/01/01/02:01:23.446000,183,0,0,world,8,1479,0.0,0.0,0.0,9.13163417559,-37.5027992546,0.0304222403031,0.0,0.0,0.0,0.0,-12.1014413834
1970/01/01/02:01:23.475000,184,0,0,world,8,1479,0.0,0.0,0.0,9.2366704988,-36.7424808171,0.0350388661925,0.0,0.0,0.0,0.0,-11.7955055237
1970/01/01/02:01:23.507000,185,0,0,world,8,1479,0.0,0.0,0.0,9.23867126969,-35.9110458267,0.0400190377712,0.0,0.0,0.0,0.0,-11.4510984421
1970/01/01/02:01:23.538000,186,0,0,world,8,1479,0.0,0.0,0.0,9.10886708974,-37.4371364621,0.0467445336942,0.0,0.0,0.0,0.0,-11.5969839096
1970/01/01/02:01:23.571000,187,0,0,world,8,1479,0.0,0.0,0.0,9.26638008625,-36.6033100841,0.0529956252963,0.0,0.0,0.0,0.0,-11.3064937592
1970/01/01/02:01:23.606000,188,0,0,world,8,1479,0.0,0.0,0.0,1.26219091472,-0.250324073641,0.0663255645662,0.0,0.0,0.0,0.0,0.0550398826599
1970/01/01/02:01:23.646000,189,0,0,world,8,1479,0.0,0.0,0.0,0.691066593349,-0.505318359738,0.0735341226606,0.0,0.0,0.0,0.0,0.0131274769083
1970/01/01/02:01:23.668000,190,0,0,world,8,1479,0.0,0.0,0.0,0.315558737337,-0.523786549824,0.0835129673998,0.0,0.0,0.0,0.0,0.0539174973965
1970/01/01/02:01:23.711000,191,0,0,world,8,1479,0.0,0.0,0.0,0.528394379201,-0.365108524137,0.0838634087545,0.0,0.0,0.0,0.0,0.0430555567145
1970/01/01/02:01:23.740000,192,0,0,world,8,1479,0.0,0.0,0.0,0.337385119174,-0.446307714446,0.0810119969704,0.0,0.0,0.0,0.0,0.0476252287626
1970/01/01/02:01:23.777000,193,0,0,world,8,1479,0.0,0.0,0.0,-0.00806996537418,-0.228190643008,0.0670710732048,0.0,0.0,0.0,0.0,0.171712949872
1970/01/01/02:01:23.807000,194,0,0,world,8,1479,0.0,0.0,0.0,-0.258321073408,-0.0110505452231,0.0535694260046,0.0,0.0,0.0,0.0,0.261223137379
1970/01/01/02:01:23.842000,195,0,0,world,8,1479,0.0,0.0,0.0,-0.427723895929,0.343697815952,0.0383198416057,0.0,0.0,0.0,0.0,0.358867794275
1970/01/01/02:01:23.875000,196,0,0,world,8,1479,0.0,0.0,0.0,-0.651182710051,0.610260304673,0.0287869372919,0.0,0.0,0.0,0.0,0.423950314522
1970/01/01/02:01:23.933000,197,0,0,world,8,1479,0.0,0.0,0.0,-0.353420677854,0.849753054219,0.00862241577021,0.0,0.0,0.0,0.0,0.372830808163
1970/01/01/02:01:23.971000,198,0,0,world,8,1479,0.0,0.0,0.0,-0.206111000459,0.678810588266,0.00437557442291,0.0,0.0,0.0,0.0,0.274629920721
1970/01/01/02:01:24.002000,199,0,0,world,8,1479,0.0,0.0,0.0,0.0464847352498,0.495061643553,0.00140597082488,0.0,0.0,0.0,0.0,0.157361999154
1970/01/01/02:01:24.040000,200,0,0,world,8,1479,0.0,0.0,0.0,0.166413865476,0.301055517878,0.0014508279634,0.0,0.0,0.0,0.0,0.0501021742821
1970/01/01/02:01:24.073000,201,0,0,world,8,1479,0.0,0.0,0.0,0.176237484497,0.223927698119,0.00402549121222,0.0,0.0,0.0,0.0,-0.0120443683118
1970/01/01/02:01:24.109000,202,0,0,world,8,1479,0.0,0.0,0.0,0.218615194005,0.208744246873,0.0071724836451,0.0,0.0,0.0,0.0,-0.0562808066607
1970/01/01/02:01:24.138000,203,0,0,world,8,1479,0.0,0.0,0.0,0.225321878174,0.292303665549,0.0145706800069,0.0,0.0,0.0,0.0,-0.081880569458
1970/01/01/02:01:24.170000,204,0,0,world,8,1479,0.0,0.0,0.0,0.194162405905,0.456797794754,0.0207151256728,0.0,0.0,0.0,0.0,-0.0607025027275
1970/01/01/02:01:24.198000,205,0,0,world,8,1479,0.0,0.0,0.0,0.213467906068,0.674746894887,0.0322771229759,0.0,0.0,0.0,0.0,-0.0381216108799
1970/01/01/02:01:24.241000,206,0,0,world,8,1479,0.0,0.0,0.0,0.207582043524,0.812555913299,0.0408595482997,0.0,0.0,0.0,0.0,-0.0227543134242
1970/01/01/02:01:24.269000,207,0,0,world,8,1479,0.0,0.0,0.0,0.19137560993,0.916982442427,0.0506575589706,0.0,0.0,0.0,0.0,-0.0200673863292
1970/01/01/02:01:24.307000,208,0,0,world,8,1479,0.0,0.0,0.0,0.214838256407,1.05253625471,0.0591202883665,0.0,0.0,0.0,0.0,0.00256189820357
1970/01/01/02:01:24.340000,209,0,0,world,8,1479,0.0,0.0,0.0,0.195252403052,1.11777348249,0.0686405644839,0.0,0.0,0.0,0.0,0.00492018740624
1970/01/01/02:01:24.372000,210,0,0,world,8,1479,0.0,0.0,0.0,0.168520716771,1.06261842491,0.0747658980836,0.0,0.0,0.0,0.0,-0.0319453366101
1970/01/01/02:01:24.414000,211,0,0,world,8,1479,0.0,0.0,0.0,0.138442661235,1.07790638561,0.0825220322815,0.0,0.0,0.0,0.0,-0.0495015755296
1970/01/01/02:01:24.451000,212,0,0,world,8,1479,0.0,0.0,0.0,0.139707115621,1.14074787955,0.0923380614729,0.0,0.0,0.0,0.0,-0.0483922511339
1970/01/01/02:01:24.487000,213,0,0,world,8,1479,0.0,0.0,0.0,0.127754533937,1.10378656719,0.0985982762377,0.0,0.0,0.0,0.0,-0.0767253115773
1970/01/01/02:01:24.504000,214,0,0,world,8,1479,0.0,0.0,0.0,0.138714571037,1.18330898638,0.106867354658,0.0,0.0,0.0,0.0,-0.0774975419044
1970/01/01/02:01:24.538000,215,0,0,world,8,1479,0.0,0.0,0.0,0.185823403183,1.30840740825,0.118466506597,0.0,0.0,0.0,0.0,-0.0513118132949
1970/01/01/02:01:24.572000,216,0,0,world,8,1479,0.0,0.0,0.0,0.238857782021,1.43994217822,0.128270165056,0.0,0.0,0.0,0.0,-0.0225988030434
1970/01/01/02:01:24.613000,217,0,0,world,8,1479,0.0,0.0,0.0,0.265053217705,1.48047951492,0.135515104848,0.0,0.0,0.0,0.0,-0.0349058248103
1970/01/01/02:01:24.642000,218,0,0,world,8,1479,0.0,0.0,0.0,0.259687281104,1.47771541362,0.14358265183,0.0,0.0,0.0,0.0,-0.0499148592353
1970/01/01/02:01:24.669000,219,0,0,world,8,1479,0.0,0.0,0.0,0.196900669401,1.37983107052,0.154113455874,0.0,0.0,0.0,0.0,-0.0824924558401
1970/01/01/02:01:24.706000,220,0,0,world,8,1479,0.0,0.0,0.0,0.146468371034,1.28998476405,0.167235696223,0.0,0.0,0.0,0.0,-0.122922167182
1970/01/01/02:01:24.742000,221,0,0,world,8,1479,0.0,0.0,0.0,0.0444527429292,1.13187483443,0.168727758706,0.0,0.0,0.0,0.0,-0.156922519207
1970/01/01/02:01:24.772000,222,0,0,world,8,1479,0.0,0.0,0.0,-0.0985513820452,0.886072178121,0.168917512338,0.0,0.0,0.0,0.0,-0.224958971143
1970/01/01/02:01:24.812000,223,0,0,world,8,1479,0.0,0.0,0.0,-0.278220597598,0.498312878584,0.166949803787,0.0,0.0,0.0,0.0,-0.328210502863
1970/01/01/02:01:24.842000,224,0,0,world,8,1479,0.0,0.0,0.0,-0.388340772903,0.233957523824,0.159422904934,0.0,0.0,0.0,0.0,-0.370885431767
1970/01/01/02:01:24.871000,225,0,0,world,8,1479,0.0,0.0,0.0,-0.395408122139,0.0395227451574,0.135556191331,0.0,0.0,0.0,0.0,-0.382115840912
1970/01/01/02:01:24.908000,226,0,0,world,8,1479,0.0,0.0,0.0,-0.310527345047,0.0994322279978,0.113507889748,0.0,0.0,0.0,0.0,-0.295893132687
1970/01/01/02:01:24.940000,227,0,0,world,8,1479,0.0,0.0,0.0,-0.192719514075,0.218944788394,0.0918033317061,0.0,0.0,0.0,0.0,-0.218528553843
1970/01/01/02:01:24.970000,228,0,0,world,8,1479,0.0,0.0,0.0,-0.064090029092,0.357219624751,0.0713434425698,0.0,0.0,0.0,0.0,-0.135628953576
1970/01/01/02:01:25.005000,229,0,0,world,8,1479,0.0,0.0,0.0,0.00718608922102,0.298141186753,0.0521270701697,0.0,0.0,0.0,0.0,-0.129350379109
1970/01/01/02:01:25.037000,230,0,0,world,8,1479,0.0,0.0,0.0,0.113360860868,0.412625466666,0.0346688717833,0.0,0.0,0.0,0.0,-0.0704255774617
1970/01/01/02:01:25.071000,231,0,0,world,8,1479,0.0,0.0,0.0,0.186706505945,0.367647046859,0.0206104877925,0.0,0.0,0.0,0.0,-0.052992362529
1970/01/01/02:01:25.107000,232,0,0,world,8,1479,0.0,0.0,0.0,0.226856421421,0.280508267538,0.0114595918658,0.0,0.0,0.0,0.0,-0.0555315390229
1970/01/01/02:01:25.141000,233,0,0,world,8,1479,0.0,0.0,0.0,0.299878627395,0.286533155262,0.00925831485573,0.0,0.0,0.0,0.0,-0.0213956702501
1970/01/01/02:01:25.172000,234,0,0,world,8,1479,0.0,0.0,0.0,0.353783773681,0.152780099621,0.00823682404666,0.0,0.0,0.0,0.0,-0.0496848225594
1970/01/01/02:01:25.208000,235,0,0,world,8,1479,0.0,0.0,0.0,0.412403089459,0.20312752158,0.0110597762862,0.0,0.0,0.0,0.0,-0.00400037784129
1970/01/01/02:01:25.243000,236,0,0,world,8,1479,0.0,0.0,0.0,0.53400181199,0.0390527618042,0.0153013020242,0.0,0.0,0.0,0.0,-0.0496463403106
1970/01/01/02:01:25.278000,237,0,0,world,8,1479,0.0,0.0,0.0,0.662834652312,-0.178935185064,0.0172447721765,0.0,0.0,0.0,0.0,-0.105324961245
1970/01/01/02:01:25.306000,238,0,0,world,8,1479,0.0,0.0,0.0,0.738302207804,-0.26293677838,0.0196670328529,0.0,0.0,0.0,0.0,-0.12247299403
1970/01/01/02:01:25.338000,239,0,0,world,8,1479,0.0,0.0,0.0,0.873507108247,-0.361287855492,0.0228859755186,0.0,0.0,0.0,0.0,-0.160859256983
1970/01/01/02:01:25.371000,240,0,0,world,8,1479,0.0,0.0,0.0,1.0345947478,-0.54411372039,0.0207773718809,0.0,0.0,0.0,0.0,-0.219992220402
1970/01/01/02:01:25.411000,241,0,0,world,8,1479,0.0,0.0,0.0,1.13129320729,-0.512763697194,0.0232070166366,0.0,0.0,0.0,0.0,-0.223413988948
1970/01/01/02:01:25.460000,242,0,0,world,8,1479,0.0,0.0,0.0,1.43570369126,-0.781305438473,0.0197308581936,0.0,0.0,0.0,0.0,-0.341964632273
1970/01/01/02:01:25.482000,243,0,0,world,8,1479,0.0,0.0,0.0,1.56643210579,-0.661962564832,0.0225420014165,0.0,0.0,0.0,0.0,-0.328330248594
1970/01/01/02:01:25.518000,244,0,0,world,8,1479,0.0,0.0,0.0,1.7153790783,-0.629049410322,0.0200485571834,0.0,0.0,0.0,0.0,-0.359212458134
1970/01/01/02:01:25.542000,245,0,0,world,8,1479,0.0,0.0,0.0,1.66255354342,-0.511925119729,0.0241123357721,0.0,0.0,0.0,0.0,-0.318270981312
1970/01/01/02:01:25.576000,246,0,0,world,8,1479,0.0,0.0,0.0,1.55074615019,-0.352392074094,0.0243854224074,0.0,0.0,0.0,0.0,-0.258308708668
1970/01/01/02:01:25.605000,247,0,0,world,8,1479,0.0,0.0,0.0,1.75239712639,-0.260537261903,0.0223287613322,0.0,0.0,0.0,0.0,-0.283874988556
1970/01/01/02:01:25.638000,248,0,0,world,8,1479,0.0,0.0,0.0,1.72614400644,-0.109868365933,0.0182656904595,0.0,0.0,0.0,0.0,-0.248707830906
1970/01/01/02:01:25.671000,249,0,0,world,8,1479,0.0,0.0,0.0,1.89316795392,-0.0880981198651,0.014784467669,0.0,0.0,0.0,0.0,-0.278693288565
1970/01/01/02:01:25.706000,250,0,0,world,8,1479,0.0,0.0,0.0,1.98010484612,-0.0171029467502,0.0111099054524,0.0,0.0,0.0,0.0,-0.280583441257
1970/01/01/02:01:25.736000,251,0,0,world,8,1479,0.0,0.0,0.0,1.94623976026,0.00127040282046,0.0070657532997,0.0,0.0,0.0,0.0,-0.264648526907
1970/01/01/02:01:25.784000,252,0,0,world,8,1479,0.0,0.0,0.0,2.25571621469,0.134110529162,-0.0105334004962,0.0,0.0,0.0,0.0,-0.272327810526
1970/01/01/02:01:25.815000,253,0,0,world,8,1479,0.0,0.0,0.0,2.17509838759,0.217814101644,-0.0218346539589,0.0,0.0,0.0,0.0,-0.227679207921
1970/01/01/02:01:25.842000,254,0,0,world,8,1479,0.0,0.0,0.0,2.08010122452,0.311453226869,-0.0321646527579,0.0,0.0,0.0,0.0,-0.172142758965
1970/01/01/02:01:25.874000,255,0,0,world,8,1479,0.0,0.0,0.0,1.74374620089,0.358506853328,-0.0340739586698,0.0,0.0,0.0,0.0,-0.112558558583
1970/01/01/02:01:25.909000,256,0,0,world,8,1479,0.0,0.0,0.0,1.59370337317,0.503558575267,-0.0465192676691,0.0,0.0,0.0,0.0,-0.0484362617135
1970/01/01/02:01:25.946000,257,0,0,world,8,1479,0.0,0.0,0.0,1.52727788261,0.572858438972,-0.0572315064488,0.0,0.0,0.0,0.0,-0.0218355283141
1970/01/01/02:01:25.987000,258,0,0,world,8,1479,0.0,0.0,0.0,1.37244743888,0.813012565898,-0.0742528339503,0.0,0.0,0.0,0.0,0.0649876222014
1970/01/01/02:01:26.010000,259,0,0,world,8,1479,0.0,0.0,0.0,1.28643117563,1.00792200888,-0.0830986511997,0.0,0.0,0.0,0.0,0.117118902504
1970/01/01/02:01:26.038000,260,0,0,world,8,1479,0.0,0.0,0.0,0.813389665815,1.09417339571,-0.0827292589481,0.0,0.0,0.0,0.0,0.172367826104
1970/01/01/02:01:26.072000,261,0,0,world,8,1479,0.0,0.0,0.0,0.627323609061,1.2329374723,-0.0864198843484,0.0,0.0,0.0,0.0,0.186854124069
1970/01/01/02:01:26.103000,262,0,0,world,8,1479,0.0,0.0,0.0,0.376992531397,1.24844053423,-0.0833211301098,0.0,0.0,0.0,0.0,0.176623746753
1970/01/01/02:01:26.139000,263,0,0,world,8,1479,0.0,0.0,0.0,0.300432604082,1.15744276728,-0.073492459244,0.0,0.0,0.0,0.0,0.142952680588
1970/01/01/02:01:26.181000,264,0,0,world,8,1479,0.0,0.0,0.0,0.512519303654,1.34554055225,-0.049785843825,0.0,0.0,0.0,0.0,0.0999776944518
1970/01/01/02:01:26.210000,265,0,0,world,8,1479,0.0,0.0,0.0,0.844524707767,1.54456812088,-0.0289993377728,0.0,0.0,0.0,0.0,0.12290648371
1970/01/01/02:01:26.240000,266,0,0,world,8,1479,0.0,0.0,0.0,1.17868133561,1.81596910007,-0.00893781845474,0.0,0.0,0.0,0.0,0.162464141846
1970/01/01/02:01:26.273000,267,0,0,world,8,1479,0.0,0.0,0.0,1.39379193955,1.84444398538,0.00345766281551,0.0,0.0,0.0,0.0,0.21883636713
1970/01/01/02:01:26.304000,268,0,0,world,8,1479,0.0,0.0,0.0,1.78380588875,2.15965224593,0.0271896826182,0.0,0.0,0.0,0.0,0.254712045193
1970/01/01/02:01:26.338000,269,0,0,world,8,1479,0.0,0.0,0.0,1.78815551785,2.17030619976,0.0365636062586,0.0,0.0,0.0,0.0,0.293845832348
1970/01/01/02:01:26.371000,270,0,0,world,8,1479,0.0,0.0,0.0,1.81379109889,2.15287962384,0.0482147046274,0.0,0.0,0.0,0.0,0.300460070372
1970/01/01/02:01:26.406000,271,0,0,world,8,1479,0.0,0.0,0.0,2.02223870981,2.55439031901,0.0606554197819,0.0,0.0,0.0,0.0,0.359238296747
1970/01/01/02:01:26.448000,272,0,0,world,8,1479,0.0,0.0,0.0,1.60537592599,2.01687300987,0.0696612716192,0.0,0.0,0.0,0.0,0.276781737804
1970/01/01/02:01:26.475000,273,0,0,world,8,1479,0.0,0.0,0.0,1.5363224091,2.01085109004,0.075047986068,0.0,0.0,0.0,0.0,0.280883163214
1970/01/01/02:01:26.506000,274,0,0,world,8,1479,0.0,0.0,0.0,1.3266826972,1.78644753584,0.0876409734205,0.0,0.0,0.0,0.0,0.207897737622
1970/01/01/02:01:26.540000,275,0,0,world,8,1479,0.0,0.0,0.0,0.94814779505,1.37657838344,0.103544053184,0.0,0.0,0.0,0.0,0.130216568708
1970/01/01/02:01:26.570000,276,0,0,world,8,1479,0.0,0.0,0.0,0.726017513068,1.08313831393,0.118484931324,0.0,0.0,0.0,0.0,0.0469707846642
1970/01/01/02:01:26.602000,277,0,0,world,8,1479,0.0,0.0,0.0,0.54316692652,0.879690988214,0.129930154473,0.0,0.0,0.0,0.0,-0.00635412475094
1970/01/01/02:01:26.633000,278,0,0,world,8,1479,0.0,0.0,0.0,0.563410192492,0.904146724091,0.1310019064,0.0,0.0,0.0,0.0,-0.00797278620303
1970/01/01/02:01:26.673000,279,0,0,world,8,1479,0.0,0.0,0.0,0.610553840402,0.968762525518,0.132767847644,0.0,0.0,0.0,0.0,0.000434508110629
1970/01/01/02:01:26.705000,280,0,0,world,8,1479,0.0,0.0,0.0,0.732070637401,1.08984233027,0.123679889756,0.0,0.0,0.0,0.0,0.0450682751834
1970/01/01/02:01:26.739000,281,0,0,world,8,1479,0.0,0.0,0.0,0.953934840089,1.33494575376,0.104645664156,0.0,0.0,0.0,0.0,0.122687250376
1970/01/01/02:01:26.770000,282,0,0,world,8,1479,0.0,0.0,0.0,1.02753236983,1.364859772,0.0806983859617,0.0,0.0,0.0,0.0,0.155709326267
1970/01/01/02:01:26.799000,283,0,0,world,8,1479,0.0,0.0,0.0,1.09491055225,1.3555718611,0.0579640146397,0.0,0.0,0.0,0.0,0.172749534249
1970/01/01/02:01:26.837000,284,0,0,world,8,1479,0.0,0.0,0.0,1.02697378941,1.13255501967,0.036316545171,0.0,0.0,0.0,0.0,0.122482568026
1970/01/01/02:01:26.867000,285,0,0,world,8,1479,0.0,0.0,0.0,0.945033390115,1.04266161255,0.0410255498539,0.0,0.0,0.0,0.0,0.103727705777
1970/01/01/02:01:26.904000,286,0,0,world,8,1479,0.0,0.0,0.0,0.77709534705,0.738805239799,0.0223262654032,0.0,0.0,0.0,0.0,0.0613773353398
1970/01/01/02:01:26.935000,287,0,0,world,8,1479,0.0,0.0,0.0,0.705241014187,0.658721483517,0.0218289645058,0.0,0.0,0.0,0.0,0.0563371367753
1970/01/01/02:01:26.970000,288,0,0,world,8,1479,0.0,0.0,0.0,0.573961530816,0.48338035913,0.0141760664891,0.0,0.0,0.0,0.0,0.0221693962812
1970/01/01/02:01:27.005000,289,0,0,world,8,1479,0.0,0.0,0.0,0.570547493913,0.407717710376,0.00691028402358,0.0,0.0,0.0,0.0,0.0113599905744
1970/01/01/02:01:27.041000,290,0,0,world,8,1479,0.0,0.0,0.0,0.488177034494,0.31549634121,0.00171740093578,0.0,0.0,0.0,0.0,0.00809845142066
1970/01/01/02:01:27.085000,291,0,0,world,8,1479,0.0,0.0,0.0,0.483067333311,0.217674256921,-0.00427491154037,0.0,0.0,0.0,0.0,0.00429161405191
1970/01/01/02:01:27.108000,292,0,0,world,8,1479,0.0,0.0,0.0,0.457287746323,0.221874290034,-0.00256030015979,0.0,0.0,0.0,0.0,0.0254606511444
1970/01/01/02:01:27.139000,293,0,0,world,8,1479,0.0,0.0,0.0,0.420929566946,0.173789522454,3.24977661848e-05,0.0,0.0,0.0,0.0,0.0376133881509
1970/01/01/02:01:27.173000,294,0,0,world,8,1479,0.0,0.0,0.0,0.393469393661,0.159360328704,0.00642407818834,0.0,0.0,0.0,0.0,0.0530882067978
1970/01/01/02:01:27.206000,295,0,0,world,8,1479,0.0,0.0,0.0,0.398304643437,0.0889327910629,0.0148853138617,0.0,0.0,0.0,0.0,0.0541933998466
1970/01/01/02:01:27.237000,296,0,0,world,8,1479,0.0,0.0,0.0,0.342602866682,-0.00736208737081,0.0289787264375,0.0,0.0,0.0,0.0,0.0468050166965
1970/01/01/02:01:27.273000,297,0,0,world,8,1479,0.0,0.0,0.0,0.310884074641,0.0498390229299,0.0468576025034,0.0,0.0,0.0,0.0,0.0843768566847
1970/01/01/02:01:27.302000,298,0,0,world,8,1479,0.0,0.0,0.0,0.243272646011,0.0187377810837,0.0616964313088,0.0,0.0,0.0,0.0,0.0991906151175
1970/01/01/02:01:27.340000,299,0,0,world,8,1479,0.0,0.0,0.0,0.21878962496,0.0421393553536,0.0812137741118,0.0,0.0,0.0,0.0,0.120808251202
1970/01/01/02:01:27.367000,300,0,0,world,8,1479,0.0,0.0,0.0,0.25626753697,0.0266734957069,0.0986817472706,0.0,0.0,0.0,0.0,0.127811133862
1970/01/01/02:01:27.402000,301,0,0,world,8,1479,0.0,0.0,0.0,0.220687042975,0.0456948164137,0.117925011257,0.0,0.0,0.0,0.0,0.151013761759
1970/01/01/02:01:27.438000,302,0,0,world,8,1479,0.0,0.0,0.0,0.257829601727,0.0195489299669,0.128965543108,0.0,0.0,0.0,0.0,0.139277547598
1970/01/01/02:01:27.474000,303,0,0,world,8,1479,0.0,0.0,0.0,0.217876590123,-0.00945413441354,0.145070643376,0.0,0.0,0.0,0.0,0.151592254639
1970/01/01/02:01:27.504000,304,0,0,world,8,1479,0.0,0.0,0.0,0.218464337598,0.0295514327708,0.16462342135,0.0,0.0,0.0,0.0,0.159291818738
1970/01/01/02:01:27.530000,305,0,0,world,8,1479,0.0,0.0,0.0,0.165070544412,0.0449324637945,0.169438997465,0.0,0.0,0.0,0.0,0.187109798193
1970/01/01/02:01:27.576000,306,0,0,world,8,1479,0.0,0.0,0.0,0.185304470899,0.0497598221714,0.168500705283,0.0,0.0,0.0,0.0,0.186851233244
1970/01/01/02:01:27.614000,307,0,0,world,8,1479,0.0,0.0,0.0,0.301478315555,0.0912441209138,0.162225044736,0.0,0.0,0.0,0.0,0.179593622684
1970/01/01/02:01:27.640000,308,0,0,world,8,1479,0.0,0.0,0.0,0.371567158465,0.0825324900179,0.144526638284,0.0,0.0,0.0,0.0,0.14811386168
1970/01/01/02:01:27.669000,309,0,0,world,8,1479,0.0,0.0,0.0,0.463393257613,0.147407748745,0.129282298152,0.0,0.0,0.0,0.0,0.132456317544
1970/01/01/02:01:27.700000,310,0,0,world,8,1479,0.0,0.0,0.0,0.572558596458,0.163898164032,0.11039316622,0.0,0.0,0.0,0.0,0.102207608521
1970/01/01/02:01:27.742000,311,0,0,world,8,1479,0.0,0.0,0.0,0.682825046467,0.0882278356233,0.0864203470557,0.0,0.0,0.0,0.0,0.0401488281786
1970/01/01/02:01:27.771000,312,0,0,world,8,1479,0.0,0.0,0.0,0.761371470427,0.0938588399468,0.069146288417,0.0,0.0,0.0,0.0,0.0142011390999
1970/01/01/02:01:27.811000,313,0,0,world,8,1479,0.0,0.0,0.0,0.73962379972,-0.151704034308,0.0484874407516,0.0,0.0,0.0,0.0,-0.0552408210933
1970/01/01/02:01:27.839000,314,0,0,world,8,1479,0.0,0.0,0.0,0.730467652157,-0.246461213062,0.0378511858766,0.0,0.0,0.0,0.0,-0.0880982801318
1970/01/01/02:01:27.873000,315,0,0,world,8,1479,0.0,0.0,0.0,0.670294920246,-0.207363871187,0.0325543004867,0.0,0.0,0.0,0.0,-0.0960171595216
1970/01/01/02:01:27.914000,316,0,0,world,8,1479,0.0,0.0,0.0,0.643127457425,-0.0926163588018,0.0275400953625,0.0,0.0,0.0,0.0,-0.0655106157064
1970/01/01/02:01:27.941000,317,0,0,world,8,1479,0.0,0.0,0.0,0.613604238725,-0.319237671651,0.0241879312966,0.0,0.0,0.0,0.0,-0.109568051994
1970/01/01/02:01:27.970000,318,0,0,world,8,1479,0.0,0.0,0.0,0.655861519192,-0.34262540662,0.0231557939231,0.0,0.0,0.0,0.0,-0.126021385193
1970/01/01/02:01:28.003000,319,0,0,world,8,1479,0.0,0.0,0.0,0.709467573519,-0.280736054122,0.0240722697988,0.0,0.0,0.0,0.0,-0.110654689372
1970/01/01/02:01:28.039000,320,0,0,world,8,1479,0.0,0.0,0.0,0.704975633575,-0.272825868844,0.0244593695126,0.0,0.0,0.0,0.0,-0.0974861979485
1970/01/01/02:01:28.074000,321,0,0,world,8,1479,0.0,0.0,0.0,0.713379759585,-0.173031120349,0.0289440269377,0.0,0.0,0.0,0.0,-0.0659593865275
1970/01/01/02:01:28.108000,322,0,0,world,8,1479,0.0,0.0,0.0,0.69714264239,-0.0800103772648,0.0340315829242,0.0,0.0,0.0,0.0,-0.0319866612554
1970/01/01/02:01:28.139000,323,0,0,world,8,1479,0.0,0.0,0.0,0.656873731874,-0.0635462748161,0.0352700643114,0.0,0.0,0.0,0.0,-0.0181540753692
1970/01/01/02:01:28.171000,324,0,0,world,8,1479,0.0,0.0,0.0,0.669988336047,-0.00218016021857,0.0350080850191,0.0,0.0,0.0,0.0,-0.000799150555395
1970/01/01/02:01:28.201000,325,0,0,world,8,1479,0.0,0.0,0.0,0.542748281965,0.091718853888,0.0328689752307,0.0,0.0,0.0,0.0,0.0420769490302
1970/01/01/02:01:28.237000,326,0,0,world,8,1479,0.0,0.0,0.0,0.450440471131,0.189950809156,0.027847193704,0.0,0.0,0.0,0.0,0.0629856809974
1970/01/01/02:01:28.272000,327,0,0,world,8,1479,0.0,0.0,0.0,0.388021704132,0.389321135401,0.025861364787,0.0,0.0,0.0,0.0,0.117043979466
1970/01/01/02:01:28.308000,328,0,0,world,8,1479,0.0,0.0,0.0,0.275630391339,0.351899644072,0.0162449581796,0.0,0.0,0.0,0.0,0.104050025344
1970/01/01/02:01:28.340000,329,0,0,world,8,1479,0.0,0.0,0.0,0.30657149116,0.448858278078,0.0118341004124,0.0,0.0,0.0,0.0,0.0987503826618
1970/01/01/02:01:28.370000,330,0,0,world,8,1479,0.0,0.0,0.0,0.299057238906,0.35689105978,0.00916923613872,0.0,0.0,0.0,0.0,0.0507055483758
1970/01/01/02:01:28.408000,331,0,0,world,8,1479,0.0,0.0,0.0,0.323192451492,0.237257860686,0.00837639414349,0.0,0.0,0.0,0.0,-0.0148344608024
1970/01/01/02:01:28.446000,332,0,0,world,8,1479,0.0,0.0,0.0,0.345066826436,0.147505519906,0.00885046286248,0.0,0.0,0.0,0.0,-0.0632522329688
1970/01/01/02:01:28.476000,333,0,0,world,8,1479,0.0,0.0,0.0,0.36210963481,0.0762423072981,0.0126724258808,0.0,0.0,0.0,0.0,-0.121340185404
1970/01/01/02:01:28.513000,334,0,0,world,8,1479,0.0,0.0,0.0,0.348716830082,0.0919867801022,0.0168694766091,0.0,0.0,0.0,0.0,-0.130421742797
1970/01/01/02:01:28.539000,335,0,0,world,8,1479,0.0,0.0,0.0,0.331122038704,0.123256573725,0.0196856758705,0.0,0.0,0.0,0.0,-0.134074255824
1970/01/01/02:01:28.568000,336,0,0,world,8,1479,0.0,0.0,0.0,0.304487523177,0.173449882654,0.0171355996357,0.0,0.0,0.0,0.0,-0.111595526338
1970/01/01/02:01:28.603000,337,0,0,world,8,1479,0.0,0.0,0.0,0.284918138279,0.202563747222,0.0177962427649,0.0,0.0,0.0,0.0,-0.0981941744685
1970/01/01/02:01:28.634000,338,0,0,world,8,1479,0.0,0.0,0.0,0.274443166198,0.20562923635,0.0158505186501,0.0,0.0,0.0,0.0,-0.0886954069138
1970/01/01/02:01:28.671000,339,0,0,world,8,1479,0.0,0.0,0.0,0.265770721921,0.272089191055,0.0182962080735,0.0,0.0,0.0,0.0,-0.0556175559759
1970/01/01/02:01:28.705000,340,0,0,world,8,1479,0.0,0.0,0.0,0.265591368378,0.282360678679,0.0174045241736,0.0,0.0,0.0,0.0,-0.0482433699071
1970/01/01/02:01:28.739000,341,0,0,world,8,1479,0.0,0.0,0.0,0.265515230285,0.29195568075,0.0170088137052,0.0,0.0,0.0,0.0,-0.0450008139014
1970/01/01/02:01:28.773000,342,0,0,world,8,1479,0.0,0.0,0.0,0.26229486938,0.24550133485,0.0135577441914,0.0,0.0,0.0,0.0,-0.0697992295027
1970/01/01/02:01:28.805000,343,0,0,world,8,1479,0.0,0.0,0.0,0.279484391735,0.268294900544,0.0142306904905,0.0,0.0,0.0,0.0,-0.072472602129
1970/01/01/02:01:28.834000,344,0,0,world,8,1479,0.0,0.0,0.0,0.281167588861,0.261694506033,0.0162350367473,0.0,0.0,0.0,0.0,-0.0721382424235
1970/01/01/02:01:28.870000,345,0,0,world,8,1479,0.0,0.0,0.0,0.306360827008,0.352251383676,0.0127059724529,0.0,0.0,0.0,0.0,-0.0578774511814
1970/01/01/02:01:28.907000,346,0,0,world,8,1479,0.0,0.0,0.0,0.274070405254,0.374591034036,0.0123768008385,0.0,0.0,0.0,0.0,-0.0467724502087
1970/01/01/02:01:28.939000,347,0,0,world,8,1479,0.0,0.0,0.0,0.270963366294,0.395902735462,0.0119919427662,0.0,0.0,0.0,0.0,-0.0424902513623
1970/01/01/02:01:28.969000,348,0,0,world,8,1479,0.0,0.0,0.0,0.261452065452,0.385429547302,0.0135314223834,0.0,0.0,0.0,0.0,-0.0491586662829
1970/01/01/02:01:29.009000,349,0,0,world,8,1479,0.0,0.0,0.0,0.26678374393,0.445951385055,0.0119836279899,0.0,0.0,0.0,0.0,-0.0385971330106
1970/01/01/02:01:29.035000,350,0,0,world,8,1479,0.0,0.0,0.0,0.24351903901,0.47341927559,0.0150395094188,0.0,0.0,0.0,0.0,-0.0343939363956
1970/01/01/02:01:29.071000,351,0,0,world,8,1479,0.0,0.0,0.0,0.258560541161,0.463585266977,0.0154789366854,0.0,0.0,0.0,0.0,-0.0544208288193
1970/01/01/02:01:29.107000,352,0,0,world,8,1479,0.0,0.0,0.0,0.247531570347,0.466138933235,0.0163135780353,0.0,0.0,0.0,0.0,-0.0610500238836
1970/01/01/02:01:29.145000,353,0,0,world,8,1479,0.0,0.0,0.0,0.236730769298,0.508311933506,0.0194455384632,0.0,0.0,0.0,0.0,-0.0694698765874
1970/01/01/02:01:29.174000,354,0,0,world,8,1479,0.0,0.0,0.0,0.252596850948,0.531235570538,0.0211902278833,0.0,0.0,0.0,0.0,-0.0518665909767
1970/01/01/02:01:29.207000,355,0,0,world,8,1479,0.0,0.0,0.0,0.249197333637,0.522343076021,0.0206677684407,0.0,0.0,0.0,0.0,-0.0626169890165
1970/01/01/02:01:29.237000,356,0,0,world,8,1479,0.0,0.0,0.0,0.238906399492,0.531496305427,0.0214853540842,0.0,0.0,0.0,0.0,-0.0671657547355
1970/01/01/02:01:29.270000,357,0,0,world,8,1479,0.0,0.0,0.0,0.262157465251,0.572254915431,0.0229824981908,0.0,0.0,0.0,0.0,-0.0628091096878
1970/01/01/02:01:29.303000,358,0,0,world,8,1479,0.0,0.0,0.0,0.227583988246,0.533407956992,0.025045743603,0.0,0.0,0.0,0.0,-0.0745616257191
1970/01/01/02:01:29.340000,359,0,0,world,8,1479,0.0,0.0,0.0,0.243418195893,0.598913416191,0.0249614089219,0.0,0.0,0.0,0.0,-0.0580729581416
1970/01/01/02:01:29.370000,360,0,0,world,8,1479,0.0,0.0,0.0,0.240558911981,0.60559126274,0.0250636065622,0.0,0.0,0.0,0.0,-0.0582121051848
1970/01/01/02:01:29.400000,361,0,0,world,8,1479,0.0,0.0,0.0,0.224028029688,0.629337293048,0.0236050317143,0.0,0.0,0.0,0.0,-0.0464532151818
1970/01/01/02:01:29.450000,362,0,0,world,8,1479,0.0,0.0,0.0,0.252990765858,0.617401988185,0.0233273891086,0.0,0.0,0.0,0.0,-0.0577537864447
1970/01/01/02:01:29.471000,363,0,0,world,8,1479,0.0,0.0,0.0,0.255575683697,0.618795570075,0.0233253306689,0.0,0.0,0.0,0.0,-0.0579006224871
1970/01/01/02:01:29.505000,364,0,0,world,8,1479,0.0,0.0,0.0,0.257528304656,0.626368546971,0.0235495238527,0.0,0.0,0.0,0.0,-0.0588519237936
1970/01/01/02:01:29.539000,365,0,0,world,8,1479,0.0,0.0,0.0,0.257006487754,0.632517960868,0.0236299695742,0.0,0.0,0.0,0.0,-0.0591403692961
1970/01/01/02:01:29.568000,366,0,0,world,8,1479,0.0,0.0,0.0,0.264892680661,0.696864323902,0.020470201451,0.0,0.0,0.0,0.0,-0.0381899662316
1970/01/01/02:01:29.604000,367,0,0,world,8,1479,0.0,0.0,0.0,0.254039130648,0.587552231959,0.0193747410335,0.0,0.0,0.0,0.0,-0.0719930008054
1970/01/01/02:01:29.637000,368,0,0,world,8,1479,0.0,0.0,0.0,0.225090730307,0.558251191028,0.0200035360509,0.0,0.0,0.0,0.0,-0.0741530954838
1970/01/01/02:01:29.667000,369,0,0,world,8,1479,0.0,0.0,0.0,0.250421063889,0.565379199305,0.0186768402688,0.0,0.0,0.0,0.0,-0.0751042068005
1970/01/01/02:01:29.708000,370,0,0,world,8,1479,0.0,0.0,0.0,0.256715097787,0.695609438971,0.0145668775204,0.0,0.0,0.0,0.0,-0.0238522551954
1970/01/01/02:01:29.737000,371,0,0,world,8,1479,0.0,0.0,0.0,0.288716664459,0.640768245761,0.0114360199619,0.0,0.0,0.0,0.0,-0.0348658375442
1970/01/01/02:01:29.772000,372,0,0,world,8,1479,0.0,0.0,0.0,0.311926420355,0.672125051451,0.00921585559218,0.0,0.0,0.0,0.0,-0.0280805844814
1970/01/01/02:01:29.805000,373,0,0,world,8,1479,0.0,0.0,0.0,0.308930837467,0.657961801401,0.00673246394849,0.0,0.0,0.0,0.0,-0.0222398079932
1970/01/01/02:01:29.836000,374,0,0,world,8,1479,0.0,0.0,0.0,0.29357432264,0.552335105244,0.00630765616079,0.0,0.0,0.0,0.0,-0.0578271523118
1970/01/01/02:01:29.869000,375,0,0,world,8,1479,0.0,0.0,0.0,0.321992728679,0.640219414854,0.00448048406388,0.0,0.0,0.0,0.0,-0.0269587431103
1970/01/01/02:01:29.902000,376,0,0,world,8,1479,0.0,0.0,0.0,0.367224042029,0.704570047497,7.03701848856e-06,0.0,0.0,0.0,0.0,-0.00971544906497
1970/01/01/02:01:29.938000,377,0,0,world,8,1479,0.0,0.0,0.0,0.364801512137,0.716975553757,-0.00194518596634,0.0,0.0,0.0,0.0,0.00115707993973
1970/01/01/02:01:29.973000,378,0,0,world,8,1479,0.0,0.0,0.0,0.322614738956,0.648750483207,-0.00357772521889,0.0,0.0,0.0,0.0,-0.0191958472133
1970/01/01/02:01:30.006000,379,0,0,world,8,1479,0.0,0.0,0.0,0.332088237972,0.681977817203,-0.00518996617065,0.0,0.0,0.0,0.0,-0.00582672888413
1970/01/01/02:01:30.038000,380,0,0,world,8,1479,0.0,0.0,0.0,0.338004728803,0.659229130824,-0.00591993398722,0.0,0.0,0.0,0.0,-0.0172325186431
1970/01/01/02:01:30.075000,381,0,0,world,8,1479,0.0,0.0,0.0,0.352108072879,0.592516686411,-0.00756861442801,0.0,0.0,0.0,0.0,-0.0417264103889
1970/01/01/02:01:30.103000,382,0,0,world,8,1479,0.0,0.0,0.0,0.394304679258,0.717722168243,-0.0091011345828,0.0,0.0,0.0,0.0,-0.00241357274354
1970/01/01/02:01:30.135000,383,0,0,world,8,1479,0.0,0.0,0.0,0.41152436917,0.673761361096,-0.0101752221486,0.0,0.0,0.0,0.0,-0.0151050705463
1970/01/01/02:01:30.172000,384,0,0,world,8,1479,0.0,0.0,0.0,0.412736312658,0.647948168045,-0.0115231045456,0.0,0.0,0.0,0.0,-0.0141024170443
1970/01/01/02:01:30.206000,385,0,0,world,8,1479,0.0,0.0,0.0,0.466588366972,0.6101332858,-0.0131739130535,0.0,0.0,0.0,0.0,-0.0356222987175
1970/01/01/02:01:30.239000,386,0,0,world,8,1479,0.0,0.0,0.0,0.462907207361,0.586448565444,-0.0144798652291,0.0,0.0,0.0,0.0,-0.0362662672997
1970/01/01/02:01:30.272000,387,0,0,world,8,1479,0.0,0.0,0.0,0.455770150231,0.5601297767,-0.0160694769717,0.0,0.0,0.0,0.0,-0.0340745523572
1970/01/01/02:01:30.305000,388,0,0,world,8,1479,0.0,0.0,0.0,0.515468747222,0.683941659897,-0.0185792630251,0.0,0.0,0.0,0.0,0.00780345639214
1970/01/01/02:01:30.336000,389,0,0,world,8,1479,0.0,0.0,0.0,0.527201022518,0.577153489436,-0.0203419991016,0.0,0.0,0.0,0.0,-0.024800254032
1970/01/01/02:01:30.368000,390,0,0,world,8,1479,0.0,0.0,0.0,0.502723204431,0.497252333481,-0.0216372712803,0.0,0.0,0.0,0.0,-0.0339733920991
1970/01/01/02:01:30.401000,391,0,0,world,8,1479,0.0,0.0,0.0,0.60319980244,0.550311752148,-0.0229399259627,0.0,0.0,0.0,0.0,-0.0216652508825
1970/01/01/02:01:30.453000,392,0,0,world,8,1479,0.0,0.0,0.0,0.602732232722,0.621281397544,-0.024793883495,0.0,0.0,0.0,0.0,0.00193866132759
1970/01/01/02:01:30.476000,393,0,0,world,8,1479,0.0,0.0,0.0,0.633808296692,0.515091111617,-0.0247066340408,0.0,0.0,0.0,0.0,-0.0226318445057
1970/01/01/02:01:30.512000,394,0,0,world,8,1479,0.0,0.0,0.0,0.635771786314,0.568546133671,-0.0256723735111,0.0,0.0,0.0,0.0,0.00273458985612
1970/01/01/02:01:30.542000,395,0,0,world,8,1479,0.0,0.0,0.0,0.717375843443,0.477606659391,-0.0269779014634,0.0,0.0,0.0,0.0,-0.0319466739893
1970/01/01/02:01:30.574000,396,0,0,world,8,1479,0.0,0.0,0.0,0.721469022711,0.484039745481,-0.0279331456841,0.0,0.0,0.0,0.0,-0.0303000491112
1970/01/01/02:01:30.605000,397,0,0,world,8,1479,0.0,0.0,0.0,0.710154523366,0.463247626986,-0.0284225524613,0.0,0.0,0.0,0.0,-0.0272769946605
1970/01/01/02:01:30.642000,398,0,0,world,8,1479,0.0,0.0,0.0,0.761158703445,0.493715581649,-0.0288586790582,0.0,0.0,0.0,0.0,-0.0196818690747
1970/01/01/02:01:30.669000,399,0,0,world,8,1479,0.0,0.0,0.0,0.762643827265,0.446835499381,-0.029497401347,0.0,0.0,0.0,0.0,-0.024513354525
1970/01/01/02:01:30.707000,400,0,0,world,8,1479,0.0,0.0,0.0,0.72394843106,0.437624435592,-0.0276334598493,0.0,0.0,0.0,0.0,-0.0145077398047
1970/01/01/02:01:30.743000,401,0,0,world,8,1479,0.0,0.0,0.0,0.743781556169,0.424641987666,-0.0273179105428,0.0,0.0,0.0,0.0,-0.0134987682104
1970/01/01/02:01:30.773000,402,0,0,world,8,1479,0.0,0.0,0.0,0.755972986764,0.373937543073,-0.0275839630128,0.0,0.0,0.0,0.0,-0.0248523466289
1970/01/01/02:01:30.807000,403,0,0,world,8,1479,0.0,0.0,0.0,0.745761902916,0.305909187705,-0.024864157736,0.0,0.0,0.0,0.0,-0.0458702556789
1970/01/01/02:01:30.836000,404,0,0,world,8,1479,0.0,0.0,0.0,0.687241847753,0.384158908033,-0.023053069091,0.0,0.0,0.0,0.0,-0.0108575001359
1970/01/01/02:01:30.873000,405,0,0,world,8,1479,0.0,0.0,0.0,0.616907163814,0.372696251261,-0.0202328030838,0.0,0.0,0.0,0.0,0.000473633117508
1970/01/01/02:01:30.906000,406,0,0,world,8,1479,0.0,0.0,0.0,0.599410307977,0.350139111441,-0.0168721292045,0.0,0.0,0.0,0.0,0.00107757176738
1970/01/01/02:01:30.955000,407,0,0,world,8,1479,0.0,0.0,0.0,0.529709031538,0.401413794905,-0.012668952349,0.0,0.0,0.0,0.0,0.0255529358983
1970/01/01/02:01:30.978000,408,0,0,world,8,1479,0.0,0.0,0.0,0.427522325075,0.452018087555,-0.00939891990492,0.0,0.0,0.0,0.0,0.0537431538105
1970/01/01/02:01:31.009000,409,0,0,world,8,1479,0.0,0.0,0.0,0.403827523715,0.528504613959,-0.00871275574493,0.0,0.0,0.0,0.0,0.0720004886389
1970/01/01/02:01:31.045000,410,0,0,world,8,1479,0.0,0.0,0.0,0.334018259619,0.517367117145,-0.00578882114035,0.0,0.0,0.0,0.0,0.0747184678912
1970/01/01/02:01:31.084000,411,0,0,world,8,1479,0.0,0.0,0.0,0.311576471864,0.642166039241,-0.00270188261297,0.0,0.0,0.0,0.0,0.117329396307
1970/01/01/02:01:31.109000,412,0,0,world,8,1479,0.0,0.0,0.0,0.331507296974,0.648236610684,-0.00066906884142,0.0,0.0,0.0,0.0,0.106869444251
1970/01/01/02:01:31.140000,413,0,0,world,8,1479,0.0,0.0,0.0,0.365291425515,0.593730636738,0.00173314134116,0.0,0.0,0.0,0.0,0.0816212743521
1970/01/01/02:01:31.169000,414,0,0,world,8,1479,0.0,0.0,0.0,0.422328646828,0.562524696266,0.00520614576343,0.0,0.0,0.0,0.0,0.0534882880747
1970/01/01/02:01:31.210000,415,0,0,world,8,1479,0.0,0.0,0.0,0.473821084136,0.5111150339,0.00749582388384,0.0,0.0,0.0,0.0,0.0226555708796
1970/01/01/02:01:31.240000,416,0,0,world,8,1479,0.0,0.0,0.0,0.511822602173,0.285634575338,0.00908682604513,0.0,0.0,0.0,0.0,-0.0637652426958
1970/01/01/02:01:31.275000,417,0,0,world,8,1479,0.0,0.0,0.0,0.553993669585,0.370844216141,0.0103915568564,0.0,0.0,0.0,0.0,-0.0458584427834
1970/01/01/02:01:31.308000,418,0,0,world,8,1479,0.0,0.0,0.0,0.516762299676,0.333644046942,0.0105280225503,0.0,0.0,0.0,0.0,-0.0582934655249
1970/01/01/02:01:31.340000,419,0,0,world,8,1479,0.0,0.0,0.0,0.502754611644,0.322154238138,0.00893994008172,0.0,0.0,0.0,0.0,-0.0623349137604
1970/01/01/02:01:31.370000,420,0,0,world,8,1479,0.0,0.0,0.0,0.498240209022,0.258102139929,0.00769431007621,0.0,0.0,0.0,0.0,-0.0669879689813
1970/01/01/02:01:31.401000,421,0,0,world,8,1479,0.0,0.0,0.0,0.606795797672,0.250960730321,0.00688912176628,0.0,0.0,0.0,0.0,-0.0675275251269
1970/01/01/02:01:31.443000,422,0,0,world,8,1479,0.0,0.0,0.0,0.593985262429,0.140394785323,0.00711809818734,0.0,0.0,0.0,0.0,-0.0830960869789
1970/01/01/02:01:31.471000,423,0,0,world,8,1479,0.0,0.0,0.0,0.679250791821,0.165899969469,0.00828520583546,0.0,0.0,0.0,0.0,-0.0643421113491
1970/01/01/02:01:31.505000,424,0,0,world,8,1479,0.0,0.0,0.0,0.775074468262,0.121457656051,0.0092521684208,0.0,0.0,0.0,0.0,-0.0781222134829
1970/01/01/02:01:31.539000,425,0,0,world,8,1479,0.0,0.0,0.0,0.823401905486,0.164996191954,0.0110636175007,0.0,0.0,0.0,0.0,-0.06561499089
1970/01/01/02:01:31.574000,426,0,0,world,8,1479,0.0,0.0,0.0,0.953145447133,0.0363023552942,0.0134163410832,0.0,0.0,0.0,0.0,-0.108298808336
1970/01/01/02:01:31.606000,427,0,0,world,8,1479,0.0,0.0,0.0,1.01228702641,0.0100540091272,0.0113157877156,0.0,0.0,0.0,0.0,-0.115218259394
1970/01/01/02:01:31.640000,428,0,0,world,8,1479,0.0,0.0,0.0,1.22895277313,-0.0515797675028,0.0103207464018,0.0,0.0,0.0,0.0,-0.16729812324
1970/01/01/02:01:31.671000,429,0,0,world,8,1479,0.0,0.0,0.0,1.21935803089,-0.1449264961,0.00920969098518,0.0,0.0,0.0,0.0,-0.190125197172
1970/01/01/02:01:31.702000,430,0,0,world,8,1479,0.0,0.0,0.0,1.34479474815,-0.0234826520887,0.00445979402476,0.0,0.0,0.0,0.0,-0.179091200233
1970/01/01/02:01:31.739000,431,0,0,world,8,1479,0.0,0.0,0.0,1.45336358814,0.00572467802878,0.00242915132024,0.0,0.0,0.0,0.0,-0.18623700738
1970/01/01/02:01:31.767000,432,0,0,world,8,1479,0.0,0.0,0.0,1.58851283606,-0.0140029050217,0.00105097212523,0.0,0.0,0.0,0.0,-0.213034540415
1970/01/01/02:01:31.803000,433,0,0,world,8,1479,0.0,0.0,0.0,1.68169226675,-0.0173296173823,-0.001776455117,0.0,0.0,0.0,0.0,-0.227489858866
